id,name,kind,region,priority,priority_score,lat,lon,osm_type,osm_id,osm_url
osm-relation-8248089,Betriebs-Angelsportverein Maria-Hauptschacht 1960 e.V.,Angel-/Fishing-POI,Aachen/Eifel,B,74,50.853471,6.180883,relation,8248089,https://www.openstreetmap.org/relation/8248089
osm-relation-8241684,Sportfischereiverein Alsdorf e.V.,Angel-/Fishing-POI,Aachen/Eifel,B,74,50.863571,6.147079,relation,8241684,https://www.openstreetmap.org/relation/8241684
osm-way-301984104,Blausteinsee,Gewässer: lake,Aachen/Eifel,B,72,50.85398,6.274631,way,301984104,https://www.openstreetmap.org/way/301984104
osm-way-17440028,Dürener Badesee,Gewässer: reservoir,Aachen/Eifel,B,72,50.803897,6.438822,way,17440028,https://www.openstreetmap.org/way/17440028
osm-way-24771758,Wehebachtalsperre,Gewässer: reservoir,Aachen/Eifel,B,72,50.744933,6.344761,way,24771758,https://www.openstreetmap.org/way/24771758
osm-node-7992750708,ASV Eschweiler,Angel-/Fishing-POI,Aachen/Eifel,B,70,50.811138,6.20716,node,7992750708,https://www.openstreetmap.org/node/7992750708
osm-way-15089900,Dreilägerbachtalsperre,Gewässer: reservoir,Aachen/Eifel,B,68,50.660488,6.218112,way,15089900,https://www.openstreetmap.org/way/15089900
osm-way-25870531,Kalltalsperre,Gewässer: reservoir,Aachen/Eifel,B,68,50.641868,6.305533,way,25870531,https://www.openstreetmap.org/way/25870531
osm-relation-14285500,Kronenburger See,Gewässer: reservoir,Aachen/Eifel,B,68,50.360997,6.461341,relation,14285500,https://www.openstreetmap.org/relation/14285500
osm-way-13689467,Naturschutzsee Füssenich,Gewässer: lake,Aachen/Eifel,B,68,50.697262,6.6243,way,13689467,https://www.openstreetmap.org/way/13689467
osm-relation-2053801,Obersee,Gewässer: reservoir,Aachen/Eifel,B,68,50.593829,6.395431,relation,2053801,https://www.openstreetmap.org/relation/2053801
osm-way-28575892,Perlenbachtalsperre,Gewässer: reservoir,Aachen/Eifel,B,68,50.534557,6.243796,way,28575892,https://www.openstreetmap.org/way/28575892
osm-way-18749096,Stauanlage Diepenbenden,Gewässer: reservoir,Aachen/Eifel,B,68,50.743353,6.080801,way,18749096,https://www.openstreetmap.org/way/18749096
osm-way-15099362,Staubecken Heimbach,Gewässer: reservoir,Aachen/Eifel,B,68,50.629066,6.466072,way,15099362,https://www.openstreetmap.org/way/15099362
osm-way-15049514,Stausee Obermaubach,Gewässer: reservoir,Aachen/Eifel,B,68,50.708106,6.441662,way,15049514,https://www.openstreetmap.org/way/15049514
osm-relation-2053802,Urftsee,Gewässer: reservoir,Aachen/Eifel,B,68,50.595732,6.439072,relation,2053802,https://www.openstreetmap.org/relation/2053802
osm-way-119517286,Oleftalsperre,Gewässer: reservoir,Aachen/Eifel,B,62,50.497843,6.397306,way,119517286,https://www.openstreetmap.org/way/119517286
osm-relation-65512,Rursee,Gewässer: reservoir,Aachen/Eifel,B,62,50.628451,6.409408,relation,65512,https://www.openstreetmap.org/relation/65512
osm-node-7682752871,ASB Tackle,Fishing-Shop/POI (kein Gewässer),Aachen/Eifel,B,61,50.911006,6.180842,node,7682752871,https://www.openstreetmap.org/node/7682752871
osm-node-13606527689,Bienenmadenmann,Fishing-Shop/POI (kein Gewässer),Aachen/Eifel,B,61,50.825709,6.416796,node,13606527689,https://www.openstreetmap.org/node/13606527689
osm-node-6898626585,DK Angelsport,Fishing-Shop/POI (kein Gewässer),Aachen/Eifel,B,61,50.756006,6.139262,node,6898626585,https://www.openstreetmap.org/node/6898626585
osm-relation-9594006,Regenrückhaltebecken Grachtstraße,Gewässer: reservoir,Aachen/Eifel,B,60,50.745458,6.179281,relation,9594006,https://www.openstreetmap.org/relation/9594006
osm-way-314624353,Binsensee,Gewässer: lake,Aachen/Eifel,B,56,50.946857,6.01764,way,314624353,https://www.openstreetmap.org/way/314624353
osm-way-29239411,Heidesee,Gewässer: lake,Aachen/Eifel,B,56,50.943317,6.023885,way,29239411,https://www.openstreetmap.org/way/29239411
osm-way-15014240,Kleiner Weiher,Gewässer: lake,Aachen/Eifel,B,56,50.867589,6.100558,way,15014240,https://www.openstreetmap.org/way/15014240
osm-way-96705341,Kläranlage,Gewässer: reservoir,Aachen/Eifel,B,56,50.656097,6.204182,way,96705341,https://www.openstreetmap.org/way/96705341
osm-way-96705339,Kläranlage,Gewässer: reservoir,Aachen/Eifel,B,56,50.656281,6.20497,way,96705339,https://www.openstreetmap.org/way/96705339
osm-way-192609259,Klärbecken,Gewässer: reservoir,Aachen/Eifel,B,56,50.654525,6.200308,way,192609259,https://www.openstreetmap.org/way/192609259
osm-way-580764199,Löschteich,Gewässer: reservoir,Aachen/Eifel,B,56,50.512998,6.285677,way,580764199,https://www.openstreetmap.org/way/580764199
osm-way-36832131,Overbacher Weiher,Gewässer: reservoir,Aachen/Eifel,B,56,50.942459,6.306736,way,36832131,https://www.openstreetmap.org/way/36832131
osm-way-442999844,Regenrückhaltebecken,Gewässer: reservoir,Aachen/Eifel,B,56,50.884931,6.27513,way,442999844,https://www.openstreetmap.org/way/442999844
osm-way-469668103,Rückhaltebecken,Gewässer: reservoir,Aachen/Eifel,B,56,50.854563,6.556605,way,469668103,https://www.openstreetmap.org/way/469668103
osm-way-41078655,Rückhaltebecken Soers,Gewässer: reservoir,Aachen/Eifel,B,56,50.797439,6.073613,way,41078655,https://www.openstreetmap.org/way/41078655
osm-way-422088642,Schommer,Gewässer: lake,Aachen/Eifel,B,56,50.397379,6.55803,way,422088642,https://www.openstreetmap.org/way/422088642
osm-way-17690960,Wasserbecken Niederforstbach,Gewässer: lake,Aachen/Eifel,B,56,50.738364,6.150129,way,17690960,https://www.openstreetmap.org/way/17690960
osm-way-119427882,Wasserwerk,Gewässer: reservoir,Aachen/Eifel,B,56,50.794373,6.479904,way,119427882,https://www.openstreetmap.org/way/119427882
osm-way-32127914,way/32127914,Angel-/Fishing-POI,Aachen/Eifel,C,54,50.520473,6.506434,way,32127914,https://www.openstreetmap.org/way/32127914
osm-way-327229045,way/327229045,Angel-/Fishing-POI,Aachen/Eifel,C,54,50.510974,6.236698,way,327229045,https://www.openstreetmap.org/way/327229045
osm-way-327229046,way/327229046,Angel-/Fishing-POI,Aachen/Eifel,C,54,50.511451,6.236774,way,327229046,https://www.openstreetmap.org/way/327229046
osm-way-327229047,way/327229047,Angel-/Fishing-POI,Aachen/Eifel,C,54,50.511231,6.236708,way,327229047,https://www.openstreetmap.org/way/327229047
osm-way-41496694,way/41496694,Angel-/Fishing-POI,Aachen/Eifel,C,54,50.519821,6.504502,way,41496694,https://www.openstreetmap.org/way/41496694
osm-way-57379206,way/57379206,Angel-/Fishing-POI,Aachen/Eifel,C,54,50.520103,6.505231,way,57379206,https://www.openstreetmap.org/way/57379206
osm-node-11169740306,AngelSpezi,Fishing-Shop/POI (kein Gewässer),Aachen/Eifel,C,53,50.605144,6.306504,node,11169740306,https://www.openstreetmap.org/node/11169740306
osm-node-8815875807,Pike Attack,Fishing-Shop/POI (kein Gewässer),Aachen/Eifel,C,53,50.580897,6.617979,node,8815875807,https://www.openstreetmap.org/node/8815875807
osm-way-34957042,way/34957042,Angel-/Fishing-POI,Aachen/Eifel,C,53,50.576938,6.497767,way,34957042,https://www.openstreetmap.org/way/34957042
osm-way-20821333,Alsdorfer Weiher,Gewässer: pond,Aachen/Eifel,C,51,50.862705,6.153022,way,20821333,https://www.openstreetmap.org/way/20821333
osm-way-1090172161,Amphibienschutzgewässer,Gewässer: pond,Aachen/Eifel,C,51,50.749295,6.520905,way,1090172161,https://www.openstreetmap.org/way/1090172161
osm-way-1090172162,Amphibienschutzgewässer,Gewässer: pond,Aachen/Eifel,C,51,50.748495,6.520725,way,1090172162,https://www.openstreetmap.org/way/1090172162
osm-way-1090190394,Amphibienschutzgewässer,Gewässer: pond,Aachen/Eifel,C,51,50.747618,6.520809,way,1090190394,https://www.openstreetmap.org/way/1090190394
osm-way-1090172163,Amphibienschutzgewässer,Gewässer: pond,Aachen/Eifel,C,51,50.748035,6.5206,way,1090172163,https://www.openstreetmap.org/way/1090172163
osm-way-93039585,Bastinsweiher,Gewässer: pond,Aachen/Eifel,C,51,50.774488,6.225482,way,93039585,https://www.openstreetmap.org/way/93039585
osm-way-711719005,Bewässerungsteich,Gewässer: pond,Aachen/Eifel,C,51,50.706891,6.396552,way,711719005,https://www.openstreetmap.org/way/711719005
osm-way-30072764,Brandweiher,Gewässer: pond,Aachen/Eifel,C,51,50.794366,6.392929,way,30072764,https://www.openstreetmap.org/way/30072764
osm-way-22960753,Broicher Weiher,Gewässer: pond,Aachen/Eifel,C,51,50.853713,6.172471,way,22960753,https://www.openstreetmap.org/way/22960753
osm-way-19830724,Ententeich,Gewässer: pond,Aachen/Eifel,C,51,50.862764,6.149013,way,19830724,https://www.openstreetmap.org/way/19830724
osm-way-1294987103,Entenweiher,Gewässer: pond,Aachen/Eifel,C,51,50.841154,6.11425,way,1294987103,https://www.openstreetmap.org/way/1294987103
osm-way-29239335,Erlenteich,Gewässer: pond,Aachen/Eifel,C,51,50.949354,6.018311,way,29239335,https://www.openstreetmap.org/way/29239335
osm-way-296206397,Essersee,Gewässer: pond,Aachen/Eifel,C,51,50.510682,6.462906,way,296206397,https://www.openstreetmap.org/way/296206397
osm-way-927866037,Forellenteich,Gewässer: pond,Aachen/Eifel,C,51,50.511851,6.287084,way,927866037,https://www.openstreetmap.org/way/927866037
osm-way-266176178,Forellenteiche Caster,Gewässer: pond,Aachen/Eifel,C,51,50.596723,6.627466,way,266176178,https://www.openstreetmap.org/way/266176178
osm-way-266176179,Forellenteiche Caster,Gewässer: pond,Aachen/Eifel,C,51,50.596327,6.626953,way,266176179,https://www.openstreetmap.org/way/266176179
osm-way-1088115518,Forellenteiche Caster,Gewässer: pond,Aachen/Eifel,C,51,50.596004,6.625868,way,1088115518,https://www.openstreetmap.org/way/1088115518
osm-way-1088115519,Forellenteiche Caster,Gewässer: pond,Aachen/Eifel,C,51,50.596118,6.62634,way,1088115519,https://www.openstreetmap.org/way/1088115519
osm-relation-17179785,Hangeweiher,Gewässer: pond,Aachen/Eifel,C,51,50.759018,6.073256,relation,17179785,https://www.openstreetmap.org/relation/17179785
osm-way-345573916,Licher See,Gewässer: pond,Aachen/Eifel,C,51,50.93309,6.478377,way,345573916,https://www.openstreetmap.org/way/345573916
osm-way-891935199,Mahlersmühlenteich,Gewässer: pond,Aachen/Eifel,C,51,50.794704,6.343162,way,891935199,https://www.openstreetmap.org/way/891935199
osm-way-25073030,Menzerather Weiher,Gewässer: pond,Aachen/Eifel,C,51,50.563576,6.258731,way,25073030,https://www.openstreetmap.org/way/25073030
osm-way-1022348811,Mühlenteich,Gewässer: pond,Aachen/Eifel,C,51,50.429282,6.407333,way,1022348811,https://www.openstreetmap.org/way/1022348811
osm-way-319019107,Mühlteich Mestrenger Mühle,Gewässer: pond,Aachen/Eifel,C,51,50.672528,6.385946,way,319019107,https://www.openstreetmap.org/way/319019107
osm-way-43681182,Orchelsweiher,Gewässer: pond,Aachen/Eifel,C,51,50.790019,6.350569,way,43681182,https://www.openstreetmap.org/way/43681182
osm-way-216050378,Palsen,Gewässer: pond,Aachen/Eifel,C,51,50.568555,6.201651,way,216050378,https://www.openstreetmap.org/way/216050378
osm-way-101979107,Römerweiher,Gewässer: pond,Aachen/Eifel,C,51,50.481952,6.623317,way,101979107,https://www.openstreetmap.org/way/101979107
osm-way-28975592,Seerosenteich,Gewässer: pond,Aachen/Eifel,C,51,50.80763,6.342858,way,28975592,https://www.openstreetmap.org/way/28975592
osm-way-38207877,Wasserschulgarten,Gewässer: pond,Aachen/Eifel,C,51,50.923713,6.347184,way,38207877,https://www.openstreetmap.org/way/38207877
osm-node-8846124085,Askari Angelsport,Fishing-Shop/POI (kein Gewässer),Aachen/Eifel,C,49,50.809051,6.150843,node,8846124085,https://www.openstreetmap.org/node/8846124085
osm-node-13104109843,DK Angelsport,Fishing-Shop/POI (kein Gewässer),Aachen/Eifel,C,49,50.806699,6.247461,node,13104109843,https://www.openstreetmap.org/node/13104109843
osm-relation-12264683,ehemaliger Mühlensee – nun Hochwasserrückhaltebecken,Gewässer: reservoir,Aachen/Eifel,C,48,50.60399,6.63635,relation,12264683,https://www.openstreetmap.org/relation/12264683
osm-way-899500093,Hochwasserrückhaltebecken Uniklinikum,Gewässer: basin,Aachen/Eifel,C,47,50.776394,6.046286,way,899500093,https://www.openstreetmap.org/way/899500093
osm-way-192334785,Regenklärbecken und Regenrückhaltebecken Rabental,Gewässer: basin,Aachen/Eifel,C,47,50.779734,6.038835,way,192334785,https://www.openstreetmap.org/way/192334785
osm-way-78501181,Regenüberlaufbecken Oberforstbach,Gewässer: basin,Aachen/Eifel,C,47,50.726167,6.152801,way,78501181,https://www.openstreetmap.org/way/78501181
osm-way-170393067,Regenüberlaufbecken Rödgener Straße,Gewässer: basin,Aachen/Eifel,C,47,50.781789,6.143575,way,170393067,https://www.openstreetmap.org/way/170393067
osm-node-8539532452,Angelgeräte Grass,Fishing-Shop/POI (kein Gewässer),Aachen/Eifel,C,45,50.588321,6.648233,node,8539532452,https://www.openstreetmap.org/node/8539532452
osm-node-6953750536,Hahne,Fishing-Shop/POI (kein Gewässer),Aachen/Eifel,C,45,50.688014,6.58066,node,6953750536,https://www.openstreetmap.org/node/6953750536
osm-node-12629196292,node/12629196292,Angel-/Fishing-POI,Aachen/Eifel,C,45,50.423057,6.56157,node,12629196292,https://www.openstreetmap.org/node/12629196292
osm-node-7728021881,node/7728021881,Angel-/Fishing-POI,Aachen/Eifel,C,45,50.853397,6.180776,node,7728021881,https://www.openstreetmap.org/node/7728021881
osm-node-7728021882,node/7728021882,Angel-/Fishing-POI,Aachen/Eifel,C,45,50.863868,6.146356,node,7728021882,https://www.openstreetmap.org/node/7728021882
osm-relation-11320992,relation/11320992,Angel-/Fishing-POI,Aachen/Eifel,C,45,50.865683,6.128316,relation,11320992,https://www.openstreetmap.org/relation/11320992
osm-way-352870260,Frommersweiher,Gewässer: basin,Aachen/Eifel,C,43,50.523661,6.277877,way,352870260,https://www.openstreetmap.org/way/352870260
osm-relation-2324649,Großer Weiher,Gewässer: basin,Aachen/Eifel,C,43,50.866452,6.104657,relation,2324649,https://www.openstreetmap.org/relation/2324649
osm-relation-13742032,Neumanns Weiher,Gewässer: basin,Aachen/Eifel,C,43,50.742228,6.26565,relation,13742032,https://www.openstreetmap.org/relation/13742032
osm-way-448007061,Regenklärbecken Grundhaus,Gewässer: basin,Aachen/Eifel,C,43,50.755062,6.060219,way,448007061,https://www.openstreetmap.org/way/448007061
osm-way-67391706,Regenrückhaltebecken,Gewässer: basin,Aachen/Eifel,C,43,50.685821,6.638304,way,67391706,https://www.openstreetmap.org/way/67391706
osm-way-61994211,Regenrückhaltebecken Geich,Gewässer: basin,Aachen/Eifel,C,43,50.703941,6.63709,way,61994211,https://www.openstreetmap.org/way/61994211
osm-way-1057165316,Regenrückhaltebecken Hander Weg,Gewässer: basin,Aachen/Eifel,C,43,50.806445,6.059723,way,1057165316,https://www.openstreetmap.org/way/1057165316
osm-way-183438051,Regenrückhaltebecken Im Johannistal,Gewässer: basin,Aachen/Eifel,C,43,50.766278,6.067814,way,183438051,https://www.openstreetmap.org/way/183438051
osm-way-19226624,Regenrückhaltebecken Johannistal,Gewässer: basin,Aachen/Eifel,C,43,50.765646,6.06601,way,19226624,https://www.openstreetmap.org/way/19226624
osm-way-899322477,Regenrückhaltebecken RWTH 7 Septfontainesweg,Gewässer: basin,Aachen/Eifel,C,43,50.788817,6.045756,way,899322477,https://www.openstreetmap.org/way/899322477
osm-way-671980860,Regenrückhaltebecken | Unterer Backertsweg,Gewässer: basin,Aachen/Eifel,C,43,50.741107,6.050689,way,671980860,https://www.openstreetmap.org/way/671980860
osm-way-1211808291,"Regenüberlaufbecken 1, Buir-Nord",Gewässer: basin,Aachen/Eifel,C,43,50.867237,6.58606,way,1211808291,https://www.openstreetmap.org/way/1211808291
osm-way-191176058,RÜB Bank /Alte KA (603),Gewässer: basin,Aachen/Eifel,C,43,50.834572,6.067494,way,191176058,https://www.openstreetmap.org/way/191176058
osm-way-210438775,Rückhaltebecken,Gewässer: basin,Aachen/Eifel,C,43,50.887628,6.129419,way,210438775,https://www.openstreetmap.org/way/210438775
osm-way-772101776,Rückhaltebecken,Gewässer: basin,Aachen/Eifel,C,43,50.876324,6.142718,way,772101776,https://www.openstreetmap.org/way/772101776
osm-relation-1043551,Weiher,Gewässer: basin,Aachen/Eifel,C,43,50.741482,6.48636,relation,1043551,https://www.openstreetmap.org/relation/1043551
osm-node-10962284262,node/10962284262,Fishing-Shop/POI (kein Gewässer),Aachen/Eifel,C,20,50.360495,6.476766,node,10962284262,https://www.openstreetmap.org/node/10962284262
osm-node-3950763632,Forellenpark Quellental,Angel-/Fishing-POI,Münsterland,A,86,51.787459,7.040823,node,3950763632,https://www.openstreetmap.org/node/3950763632
osm-relation-3869906,Angelparadies Hochmoor,Angel-/Fishing-POI,Münsterland,A,82,51.903599,7.021434,relation,3869906,https://www.openstreetmap.org/relation/3869906
osm-way-264155006,Fischteiche Ahlen,Angel-/Fishing-POI,Münsterland,B,74,51.72429,7.899136,way,264155006,https://www.openstreetmap.org/way/264155006
osm-way-4275313,Aasee,Gewässer: lake,Münsterland,B,72,51.951288,7.606136,way,4275313,https://www.openstreetmap.org/way/4275313
osm-way-23982994,Freizeitsee Tuttenbrock,Gewässer: lake,Münsterland,B,72,51.774047,8.024726,way,23982994,https://www.openstreetmap.org/way/23982994
osm-node-12944315867,Agravis-Hafen,Angel-/Fishing-POI,Münsterland,B,70,51.940056,7.637762,node,12944315867,https://www.openstreetmap.org/node/12944315867
osm-way-474423683,Behinderten Angelplatz,Angel-/Fishing-POI,Münsterland,B,70,51.782457,7.445312,way,474423683,https://www.openstreetmap.org/way/474423683
osm-node-3915241918,Fischzucht Hellmann ehemals Alte Mühle,Angel-/Fishing-POI,Münsterland,B,70,51.842102,7.242315,node,3915241918,https://www.openstreetmap.org/node/3915241918
osm-node-3915241921,Forellenhof Münsterland,Angel-/Fishing-POI,Münsterland,B,70,51.856399,7.244526,node,3915241921,https://www.openstreetmap.org/node/3915241921
osm-relation-2621265,Aasee,Gewässer: lake,Münsterland,B,68,52.266013,7.726452,relation,2621265,https://www.openstreetmap.org/relation/2621265
osm-relation-4081955,Hiltruper See,Gewässer: lake,Münsterland,B,68,51.887093,7.658599,relation,4081955,https://www.openstreetmap.org/relation/4081955
osm-way-23602640,Klutensee,Gewässer: lake,Münsterland,B,68,51.774556,7.424911,way,23602640,https://www.openstreetmap.org/way/23602640
osm-way-23196808,Silbersee II,Gewässer: lake,Münsterland,B,68,51.798684,7.222068,way,23196808,https://www.openstreetmap.org/way/23196808
osm-node-9997048833,Angel- und Hegeverein Halle (Westf.),Angel-/Fishing-POI,Münsterland,B,64,52.045256,8.337197,node,9997048833,https://www.openstreetmap.org/node/9997048833
osm-way-837357346,Baggersee Strönfeld,Gewässer: lake,Münsterland,B,64,52.12622,7.154526,way,837357346,https://www.openstreetmap.org/way/837357346
osm-way-23196812,Bruchteich,Gewässer: lake,Münsterland,B,62,51.811259,7.217261,way,23196812,https://www.openstreetmap.org/way/23196812
osm-relation-2302263,Dülmener See,Gewässer: lake,Münsterland,B,62,51.806222,7.231642,relation,2302263,https://www.openstreetmap.org/relation/2302263
osm-way-70533947,Erdfallsee,Gewässer: lake,Münsterland,B,62,52.349017,7.625092,way,70533947,https://www.openstreetmap.org/way/70533947
osm-way-85594599,Franz-Felix-See,Gewässer: lake,Münsterland,B,62,52.114773,7.694938,way,85594599,https://www.openstreetmap.org/way/85594599
osm-way-1111855621,Großes Heiliges Meer,Gewässer: lake,Münsterland,B,62,52.352174,7.633929,way,1111855621,https://www.openstreetmap.org/way/1111855621
osm-way-23196809,Silbersee III,Gewässer: lake,Münsterland,B,62,51.797537,7.241116,way,23196809,https://www.openstreetmap.org/way/23196809
osm-way-34571621,Torfmoorsee,Gewässer: lake,Münsterland,B,62,52.283697,7.564039,way,34571621,https://www.openstreetmap.org/way/34571621
osm-relation-8785284,Blaue Lagune,Gewässer: lake,Münsterland,B,60,51.762565,8.016222,relation,8785284,https://www.openstreetmap.org/relation/8785284
osm-relation-3368001,Kalksandsteinsee,Gewässer: lake,Münsterland,B,60,51.917885,7.085334,relation,3368001,https://www.openstreetmap.org/relation/3368001
osm-way-91584002,Klärteich,Gewässer: pond,Münsterland,B,59,52.296101,7.631423,way,91584002,https://www.openstreetmap.org/way/91584002
osm-way-91583969,Klärteich,Gewässer: pond,Münsterland,B,59,52.298912,7.635813,way,91583969,https://www.openstreetmap.org/way/91583969
osm-way-91584010,Klärteich,Gewässer: pond,Münsterland,B,59,52.303098,7.632849,way,91584010,https://www.openstreetmap.org/way/91584010
osm-relation-14617955,Klärteich,Gewässer: pond,Münsterland,B,59,52.298383,7.631454,relation,14617955,https://www.openstreetmap.org/relation/14617955
osm-relation-14617956,Klärteich,Gewässer: pond,Münsterland,B,59,52.299191,7.63132,relation,14617956,https://www.openstreetmap.org/relation/14617956
osm-way-91239485,Waldsee,Gewässer: pond,Münsterland,B,59,51.849444,7.04666,way,91239485,https://www.openstreetmap.org/way/91239485
osm-way-143215565,CaJo Angelsport,Fishing-Shop/POI (kein Gewässer),Münsterland,B,57,51.985564,7.636615,way,143215565,https://www.openstreetmap.org/way/143215565
osm-way-23196815,Oedlerteich,Gewässer: pond,Münsterland,B,57,51.81338,7.235109,way,23196815,https://www.openstreetmap.org/way/23196815
osm-way-1226762153,Tiggelsee,Gewässer: pond,Münsterland,B,57,52.143088,7.328904,way,1226762153,https://www.openstreetmap.org/way/1226762153
osm-relation-2302264,Vogelvennteich,Gewässer: pond,Münsterland,B,57,51.805903,7.220815,relation,2302264,https://www.openstreetmap.org/relation/2302264
osm-way-335957934,Alt Hesselarm,Gewässer: reservoir,Münsterland,B,56,51.988758,7.931529,way,335957934,https://www.openstreetmap.org/way/335957934
osm-relation-3406173,Auesee,Gewässer: lake,Münsterland,B,56,51.810648,8.1353,relation,3406173,https://www.openstreetmap.org/relation/3406173
osm-way-1204121355,Bierbaum-Hölscher-See,Gewässer: lake,Münsterland,B,56,52.149534,7.719788,way,1204121355,https://www.openstreetmap.org/way/1204121355
osm-way-32964629,Buldener See,Gewässer: lake,Münsterland,B,56,51.867268,7.351509,way,32964629,https://www.openstreetmap.org/way/32964629
osm-way-27614879,Ems-Hessel-See,Gewässer: lake,Münsterland,B,56,51.976101,7.919,way,27614879,https://www.openstreetmap.org/way/27614879
osm-way-20016107,Emssee,Gewässer: lake,Münsterland,B,56,51.954856,7.998287,way,20016107,https://www.openstreetmap.org/way/20016107
osm-way-24000560,Emssee,Gewässer: lake,Münsterland,B,56,51.835773,8.307842,way,24000560,https://www.openstreetmap.org/way/24000560
osm-relation-1061620,Feldmarksee,Gewässer: lake,Münsterland,B,56,52.004991,8.057082,relation,1061620,https://www.openstreetmap.org/relation/1061620
osm-way-57779186,Goarendieksee,Gewässer: lake,Münsterland,B,56,52.11655,7.870653,way,57779186,https://www.openstreetmap.org/way/57779186
osm-way-897975671,Güllespeicher,Gewässer: reservoir,Münsterland,B,56,52.244788,7.624209,way,897975671,https://www.openstreetmap.org/way/897975671
osm-way-897975672,Güllespeicher,Gewässer: reservoir,Münsterland,B,56,52.244519,7.624881,way,897975672,https://www.openstreetmap.org/way/897975672
osm-way-49337449,Hardtteiche,Gewässer: lake,Münsterland,B,56,51.835388,7.861178,way,49337449,https://www.openstreetmap.org/way/49337449
osm-way-49337451,Hardtteiche,Gewässer: lake,Münsterland,B,56,51.835746,7.854831,way,49337451,https://www.openstreetmap.org/way/49337451
osm-way-27614878,Hedwigsee,Gewässer: lake,Münsterland,B,56,51.973296,7.824782,way,27614878,https://www.openstreetmap.org/way/27614878
osm-way-27199730,Heidesee,Gewässer: lake,Münsterland,B,56,51.922197,7.102244,way,27199730,https://www.openstreetmap.org/way/27199730
osm-way-25514541,Heidesee,Gewässer: lake,Münsterland,B,56,52.003648,8.093276,way,25514541,https://www.openstreetmap.org/way/25514541
osm-way-54409647,Hörster Heide See,Gewässer: lake,Münsterland,B,56,52.006447,7.903336,way,54409647,https://www.openstreetmap.org/way/54409647
osm-way-25550066,Kleickmann-Nordsee,Gewässer: lake,Münsterland,B,56,51.724127,8.267631,way,25550066,https://www.openstreetmap.org/way/25550066
osm-way-25550072,Kleickmann-Südsee,Gewässer: lake,Münsterland,B,56,51.720653,8.267166,way,25550072,https://www.openstreetmap.org/way/25550072
osm-way-62117740,Knüwe-Nordsee,Gewässer: lake,Münsterland,B,56,51.722959,8.273247,way,62117740,https://www.openstreetmap.org/way/62117740
osm-way-62117742,Knüwe-Südsee,Gewässer: lake,Münsterland,B,56,51.72077,8.273591,way,62117742,https://www.openstreetmap.org/way/62117742
osm-way-27614888,Kottruper Seen,Gewässer: lake,Münsterland,B,56,51.965081,7.948159,way,27614888,https://www.openstreetmap.org/way/27614888
osm-way-27614889,Kottruper Seen,Gewässer: lake,Münsterland,B,56,51.961422,7.951364,way,27614889,https://www.openstreetmap.org/way/27614889
osm-way-27614887,Kottruper Seen,Gewässer: lake,Münsterland,B,56,51.964038,7.955607,way,27614887,https://www.openstreetmap.org/way/27614887
osm-way-34586861,Linnigen,Gewässer: lake,Münsterland,B,56,51.876926,7.140568,way,34586861,https://www.openstreetmap.org/way/34586861
osm-way-27173032,Loddenbachsee,Gewässer: lake,Münsterland,B,56,51.934406,7.668914,way,27173032,https://www.openstreetmap.org/way/27173032
osm-relation-52025,Louisensee,Gewässer: lake,Münsterland,B,56,52.012151,8.082286,relation,52025,https://www.openstreetmap.org/relation/52025
osm-way-181014463,Löschteich,Gewässer: reservoir,Münsterland,B,56,52.282404,7.658328,way,181014463,https://www.openstreetmap.org/way/181014463
osm-relation-150786,Mühlensee,Gewässer: lake,Münsterland,B,56,51.816581,8.141881,relation,150786,https://www.openstreetmap.org/relation/150786
osm-way-1086356382,Mühlenweier,Gewässer: reservoir,Münsterland,B,56,51.937399,7.188703,way,1086356382,https://www.openstreetmap.org/way/1086356382
osm-way-59685067,Regenrückhaltebecken Hovestadt,Gewässer: reservoir,Münsterland,B,56,51.840961,7.680147,way,59685067,https://www.openstreetmap.org/way/59685067
osm-way-185094065,Regenrückhaltebecken Overmannstraße,Gewässer: reservoir,Münsterland,B,56,52.088447,7.635183,way,185094065,https://www.openstreetmap.org/way/185094065
osm-way-28953469,Reuter,Gewässer: lake,Münsterland,B,56,52.121873,7.517946,way,28953469,https://www.openstreetmap.org/way/28953469
osm-relation-2326950,Rolandsee,Gewässer: lake,Münsterland,B,56,51.781825,8.016476,relation,2326950,https://www.openstreetmap.org/relation/2326950
osm-relation-15579400,Rötekuhlen,Gewässer: reservoir,Münsterland,B,56,52.099431,8.30273,relation,15579400,https://www.openstreetmap.org/relation/15579400
osm-way-91568953,Sonnenhügelsee,Gewässer: lake,Münsterland,B,56,52.189667,7.801055,way,91568953,https://www.openstreetmap.org/way/91568953
osm-way-156945497,Stikkte-See,Gewässer: reservoir,Münsterland,B,56,52.073437,6.956954,way,156945497,https://www.openstreetmap.org/way/156945497
osm-way-28274429,Taubenteich,Gewässer: lake,Münsterland,B,56,51.768898,7.232581,way,28274429,https://www.openstreetmap.org/way/28274429
osm-way-51106046,Temmesee,Gewässer: lake,Münsterland,B,56,52.017787,8.148896,way,51106046,https://www.openstreetmap.org/way/51106046
osm-relation-55804,Vennteichsee,Gewässer: lake,Münsterland,B,56,52.046279,8.335853,relation,55804,https://www.openstreetmap.org/relation/55804
osm-way-83099823,Waldsee,Gewässer: lake,Münsterland,B,56,52.151364,7.725453,way,83099823,https://www.openstreetmap.org/way/83099823
osm-way-649164575,Wasserspiel,Gewässer: reservoir,Münsterland,B,56,51.843883,7.828593,way,649164575,https://www.openstreetmap.org/way/649164575
osm-way-44355781,Westeroder See,Gewässer: lake,Münsterland,B,56,52.081699,7.563179,way,44355781,https://www.openstreetmap.org/way/44355781
osm-way-51955630,Wüseke-See,Gewässer: lake,Münsterland,B,56,52.027643,8.047404,way,51955630,https://www.openstreetmap.org/way/51955630
osm-way-86467899,ehem. Steinbruch Vorwärts,Gewässer: lake,Münsterland,B,56,51.767702,8.068128,way,86467899,https://www.openstreetmap.org/way/86467899
osm-way-35164109,ehem. Steinbruch Zollern,Gewässer: lake,Münsterland,B,56,51.801851,8.00572,way,35164109,https://www.openstreetmap.org/way/35164109
osm-way-1051057332,Überlauf / Löschwasser,Gewässer: reservoir,Münsterland,B,56,52.171918,7.875066,way,1051057332,https://www.openstreetmap.org/way/1051057332
osm-node-6799375981,Angelsport Böcker,Fishing-Shop/POI (kein Gewässer),Münsterland,C,53,52.178701,7.039896,node,6799375981,https://www.openstreetmap.org/node/6799375981
osm-node-3609704134,Löchte Angelsport,Fishing-Shop/POI (kein Gewässer),Münsterland,C,53,52.305339,7.4603,node,3609704134,https://www.openstreetmap.org/node/3609704134
osm-way-54507667,S & W Ausrüstung,Fishing-Shop/POI (kein Gewässer),Münsterland,C,53,51.79714,7.741093,way,54507667,https://www.openstreetmap.org/way/54507667
osm-node-8521142839,node/8521142839,Angel-/Fishing-POI,Münsterland,C,53,51.850044,7.045753,node,8521142839,https://www.openstreetmap.org/node/8521142839
osm-way-329859063,Altarm,Gewässer: pond,Münsterland,C,51,52.0166,7.729032,way,329859063,https://www.openstreetmap.org/way/329859063
osm-way-861352014,Angelteich,Gewässer: pond,Münsterland,C,51,52.023386,7.072969,way,861352014,https://www.openstreetmap.org/way/861352014
osm-way-861352015,Angelteich,Gewässer: pond,Münsterland,C,51,52.023182,7.073856,way,861352015,https://www.openstreetmap.org/way/861352015
osm-way-26676445,Blankes Kuhle,Gewässer: pond,Münsterland,C,51,51.947794,7.181101,way,26676445,https://www.openstreetmap.org/way/26676445
osm-way-605407560,Blänke,Gewässer: pond,Münsterland,C,51,51.834458,7.820438,way,605407560,https://www.openstreetmap.org/way/605407560
osm-way-336040300,Brandteich,Gewässer: pond,Münsterland,C,51,52.191361,7.85407,way,336040300,https://www.openstreetmap.org/way/336040300
osm-way-918182324,Enten,Gewässer: pond,Münsterland,C,51,52.163077,7.671826,way,918182324,https://www.openstreetmap.org/way/918182324
osm-way-444407947,Ententeich,Gewässer: pond,Münsterland,C,51,52.210937,7.310556,way,444407947,https://www.openstreetmap.org/way/444407947
osm-way-153573472,Fischteich,Gewässer: pond,Münsterland,C,51,52.063575,7.49837,way,153573472,https://www.openstreetmap.org/way/153573472
osm-way-1414108614,Flussprofil,Gewässer: pond,Münsterland,C,51,51.987973,7.730097,way,1414108614,https://www.openstreetmap.org/way/1414108614
osm-way-108009671,Friedenssee,Gewässer: pond,Münsterland,C,51,51.936397,7.652455,way,108009671,https://www.openstreetmap.org/way/108009671
osm-way-263354727,Froschteich,Gewässer: pond,Münsterland,C,51,52.296162,7.425821,way,263354727,https://www.openstreetmap.org/way/263354727
osm-way-48285802,Glockenkolk,Gewässer: pond,Münsterland,C,51,51.770519,7.441103,way,48285802,https://www.openstreetmap.org/way/48285802
osm-way-259411164,Gräfte,Gewässer: pond,Münsterland,C,51,52.006829,7.361276,way,259411164,https://www.openstreetmap.org/way/259411164
osm-way-200739682,Gräfte,Gewässer: pond,Münsterland,C,51,51.999043,7.558478,way,200739682,https://www.openstreetmap.org/way/200739682
osm-way-173492597,Göckenteich,Gewässer: pond,Münsterland,C,51,52.128188,7.396492,way,173492597,https://www.openstreetmap.org/way/173492597
osm-way-173492598,Göckenteich,Gewässer: pond,Münsterland,C,51,52.127954,7.395798,way,173492598,https://www.openstreetmap.org/way/173492598
osm-relation-5447749,Heidhornsee,Gewässer: pond,Münsterland,C,51,51.876188,7.643842,relation,5447749,https://www.openstreetmap.org/relation/5447749
osm-way-90649979,Heiteich,Gewässer: pond,Münsterland,C,51,52.262377,7.701726,way,90649979,https://www.openstreetmap.org/way/90649979
osm-way-9865084,Kanonengraben,Gewässer: pond,Münsterland,C,51,51.956714,7.622162,way,9865084,https://www.openstreetmap.org/way/9865084
osm-way-32325658,Kieferngrundsee,Gewässer: pond,Münsterland,C,51,52.161331,7.288031,way,32325658,https://www.openstreetmap.org/way/32325658
osm-way-318334224,Klärteich,Gewässer: pond,Münsterland,C,51,51.7565,7.994187,way,318334224,https://www.openstreetmap.org/way/318334224
osm-way-91615476,Klärteich,Gewässer: pond,Münsterland,C,51,52.292629,7.663714,way,91615476,https://www.openstreetmap.org/way/91615476
osm-way-91615502,Klärteich,Gewässer: pond,Münsterland,C,51,52.292275,7.665644,way,91615502,https://www.openstreetmap.org/way/91615502
osm-way-91615505,Klärteich,Gewässer: pond,Münsterland,C,51,52.292007,7.666596,way,91615505,https://www.openstreetmap.org/way/91615505
osm-way-91615510,Klärteich,Gewässer: pond,Münsterland,C,51,52.29324,7.664319,way,91615510,https://www.openstreetmap.org/way/91615510
osm-way-91615480,Klärteich,Gewässer: pond,Münsterland,C,51,52.291645,7.668712,way,91615480,https://www.openstreetmap.org/way/91615480
osm-relation-2426040,Klärteich Sonnenschein,Gewässer: pond,Münsterland,C,51,52.155646,7.313167,relation,2426040,https://www.openstreetmap.org/relation/2426040
osm-way-1204120638,Lehmloch,Gewässer: pond,Münsterland,C,51,52.15683,7.731406,way,1204120638,https://www.openstreetmap.org/way/1204120638
osm-way-537972419,Lehmloch,Gewässer: pond,Münsterland,C,51,52.368255,7.848642,way,537972419,https://www.openstreetmap.org/way/537972419
osm-way-569598580,Löschteich,Gewässer: pond,Münsterland,C,51,52.349229,7.878743,way,569598580,https://www.openstreetmap.org/way/569598580
osm-way-562877312,Löschwasserteich,Gewässer: pond,Münsterland,C,51,52.180401,6.976514,way,562877312,https://www.openstreetmap.org/way/562877312
osm-way-12687124,Matchasee,Gewässer: pond,Münsterland,C,51,51.95708,7.629981,way,12687124,https://www.openstreetmap.org/way/12687124
osm-way-231932341,Mühlenteich,Gewässer: pond,Münsterland,C,51,51.977559,7.286274,way,231932341,https://www.openstreetmap.org/way/231932341
osm-way-37107395,Mühlenteich,Gewässer: pond,Münsterland,C,51,52.054539,7.145285,way,37107395,https://www.openstreetmap.org/way/37107395
osm-way-58928135,Mühlenteich,Gewässer: pond,Münsterland,C,51,51.756951,8.021063,way,58928135,https://www.openstreetmap.org/way/58928135
osm-way-203764966,Mühlenteich,Gewässer: pond,Münsterland,C,51,52.223818,7.745796,way,203764966,https://www.openstreetmap.org/way/203764966
osm-way-552110260,Mühlenteich,Gewässer: pond,Münsterland,C,51,52.313441,7.779361,way,552110260,https://www.openstreetmap.org/way/552110260
osm-way-534331549,Mühlteich,Gewässer: pond,Münsterland,C,51,51.907456,7.38792,way,534331549,https://www.openstreetmap.org/way/534331549
osm-way-254668219,Mühlteich,Gewässer: pond,Münsterland,C,51,52.104207,7.291636,way,254668219,https://www.openstreetmap.org/way/254668219
osm-relation-1318370,Oedingteich,Gewässer: pond,Münsterland,C,51,51.895057,7.637308,relation,1318370,https://www.openstreetmap.org/relation/1318370
osm-way-628638208,Ponte Rosa,Gewässer: pond,Münsterland,C,51,51.885651,8.118695,way,628638208,https://www.openstreetmap.org/way/628638208
osm-way-176229177,RHW Teich,Gewässer: pond,Münsterland,C,51,51.973552,7.596174,way,176229177,https://www.openstreetmap.org/way/176229177
osm-relation-12409706,Rathausteich,Gewässer: pond,Münsterland,C,51,52.055582,7.36133,relation,12409706,https://www.openstreetmap.org/relation/12409706
osm-way-270654106,Rückhaltebecken,Gewässer: pond,Münsterland,C,51,51.75099,7.906026,way,270654106,https://www.openstreetmap.org/way/270654106
osm-way-82374984,Schulteich,Gewässer: pond,Münsterland,C,51,52.197908,7.23717,way,82374984,https://www.openstreetmap.org/way/82374984
osm-way-110586720,Silbersee,Gewässer: pond,Münsterland,C,51,51.899455,7.649454,way,110586720,https://www.openstreetmap.org/way/110586720
osm-way-239325184,Tauchsportanlage,Gewässer: fishpond,Münsterland,C,51,52.239866,7.677717,way,239325184,https://www.openstreetmap.org/way/239325184
osm-way-760652481,Ölmühlenteich,Gewässer: pond,Münsterland,C,51,52.264193,7.705971,way,760652481,https://www.openstreetmap.org/way/760652481
osm-node-10029602620,Forellenzucht und Angelteiche Josef Strock,Fishing-Shop/POI (kein Gewässer),Münsterland,C,49,51.769473,6.956415,node,10029602620,https://www.openstreetmap.org/node/10029602620
osm-node-1644984265,node/1644984265,Angel-/Fishing-POI,Münsterland,C,45,51.841211,7.240643,node,1644984265,https://www.openstreetmap.org/node/1644984265
osm-node-367637094,node/367637094,Angel-/Fishing-POI,Münsterland,C,45,52.269554,7.315802,node,367637094,https://www.openstreetmap.org/node/367637094
osm-node-386774441,node/386774441,Angel-/Fishing-POI,Münsterland,C,45,52.265029,7.311814,node,386774441,https://www.openstreetmap.org/node/386774441
osm-node-386919398,node/386919398,Angel-/Fishing-POI,Münsterland,C,45,52.211957,7.396184,node,386919398,https://www.openstreetmap.org/node/386919398
osm-way-249524362,Altarm Reinermann,Gewässer: oxbow,Münsterland,C,43,52.198004,7.544976,way,249524362,https://www.openstreetmap.org/way/249524362
osm-way-1089673759,Altarm Werse,Gewässer: oxbow,Münsterland,C,43,51.942977,7.691491,way,1089673759,https://www.openstreetmap.org/way/1089673759
osm-way-213625011,Alte Ems,Gewässer: oxbow,Münsterland,C,43,51.975771,7.823548,way,213625011,https://www.openstreetmap.org/way/213625011
osm-way-177381407,Alte Ems,Gewässer: oxbow,Münsterland,C,43,52.073939,7.658337,way,177381407,https://www.openstreetmap.org/way/177381407
osm-way-150641189,Alte Ems,Gewässer: oxbow,Münsterland,C,43,52.135211,7.604338,way,150641189,https://www.openstreetmap.org/way/150641189
osm-way-150141203,Ems-Altarm,Gewässer: oxbow,Münsterland,C,43,51.969156,7.880863,way,150141203,https://www.openstreetmap.org/way/150141203
osm-way-251343589,Ems-Altarm Steenkämpe,Gewässer: oxbow,Münsterland,C,43,51.970751,7.862661,way,251343589,https://www.openstreetmap.org/way/251343589
osm-way-1205272278,Ems-Altarm Steenkämpe,Gewässer: oxbow,Münsterland,C,43,51.971814,7.865874,way,1205272278,https://www.openstreetmap.org/way/1205272278
osm-way-32469828,Ententeich,Gewässer: basin,Münsterland,C,43,52.12569,7.546243,way,32469828,https://www.openstreetmap.org/way/32469828
osm-way-72246125,Feuerlöschteich,Gewässer: basin,Münsterland,C,43,52.149571,7.100352,way,72246125,https://www.openstreetmap.org/way/72246125
osm-way-177379921,Hellmanns Toter Arm,Gewässer: oxbow,Münsterland,C,43,52.076634,7.648481,way,177379921,https://www.openstreetmap.org/way/177379921
osm-way-758683145,Kläranlage,Gewässer: pond,Münsterland,C,43,52.266079,7.872933,way,758683145,https://www.openstreetmap.org/way/758683145
osm-way-266873562,Regenrückhaltebecken,Gewässer: basin,Münsterland,C,43,51.771425,7.906738,way,266873562,https://www.openstreetmap.org/way/266873562
osm-way-496929202,Regenrückhaltebecken,Gewässer: basin,Münsterland,C,43,52.175708,7.838769,way,496929202,https://www.openstreetmap.org/way/496929202
osm-way-710060182,Regenrückhaltebecken 112,Gewässer: basin,Münsterland,C,43,51.769194,8.038223,way,710060182,https://www.openstreetmap.org/way/710060182
osm-way-51982383,Regenrückhaltebecken An der Pferdebahn,Gewässer: basin,Münsterland,C,43,51.795968,7.72479,way,51982383,https://www.openstreetmap.org/way/51982383
osm-way-750552424,Regenrückhaltebecken Kämpenstraße,Gewässer: basin,Münsterland,C,43,52.031325,8.147193,way,750552424,https://www.openstreetmap.org/way/750552424
osm-way-1408791308,Regenrückhaltebecken Ost,Gewässer: basin,Münsterland,C,43,51.932746,7.766706,way,1408791308,https://www.openstreetmap.org/way/1408791308
osm-way-51254687,Regenrückhaltebecken Pferdekamp,Gewässer: basin,Münsterland,C,43,51.848776,7.682784,way,51254687,https://www.openstreetmap.org/way/51254687
osm-way-1408792806,Regenrückhaltebecken Süd,Gewässer: basin,Münsterland,C,43,51.931594,7.763637,way,1408792806,https://www.openstreetmap.org/way/1408792806
osm-way-58096582,Regenrückhaltebecken Walstedde Nord,Gewässer: basin,Münsterland,C,43,51.768097,7.792009,way,58096582,https://www.openstreetmap.org/way/58096582
osm-way-335102437,Regenrückhaltebecken Walstedde Süd,Gewässer: basin,Münsterland,C,43,51.759339,7.793116,way,335102437,https://www.openstreetmap.org/way/335102437
osm-way-51982380,Regenrückhaltebecken Weidenbrede,Gewässer: basin,Münsterland,C,43,51.796168,7.725265,way,51982380,https://www.openstreetmap.org/way/51982380
osm-way-1410906708,Regenrückhaltebecken West,Gewässer: basin,Münsterland,C,43,51.93371,7.761136,way,1410906708,https://www.openstreetmap.org/way/1410906708
osm-way-1173011236,Rückhaltebecken,Gewässer: basin,Münsterland,C,43,52.217999,7.083957,way,1173011236,https://www.openstreetmap.org/way/1173011236
osm-way-268648919,Rückhaltebecken,Gewässer: basin,Münsterland,C,43,51.779128,7.906093,way,268648919,https://www.openstreetmap.org/way/268648919
osm-way-268648921,Rückhaltebecken,Gewässer: basin,Münsterland,C,43,51.77411,7.924764,way,268648921,https://www.openstreetmap.org/way/268648921
osm-way-595187501,Rückhaltebecken,Gewässer: basin,Münsterland,C,43,51.769914,7.943782,way,595187501,https://www.openstreetmap.org/way/595187501
osm-way-1277895939,Am Bielenfeld,Gewässer: basin,Münsterland,C,35,51.909684,7.696839,way,1277895939,https://www.openstreetmap.org/way/1277895939
osm-way-1173011235,Rückhaltebecken,Gewässer: basin,Münsterland,C,35,52.218893,7.082177,way,1173011235,https://www.openstreetmap.org/way/1173011235
osm-way-466159307,way/466159307,Angel-/Fishing-POI,Münsterland,C,35,51.911819,7.612469,way,466159307,https://www.openstreetmap.org/way/466159307
osm-way-1001491922,Klärbecken,Gewässer: reservoir,Münsterland,C,33,51.940852,6.952176,way,1001491922,https://www.openstreetmap.org/way/1001491922
osm-way-1001491923,Klärbecken,Gewässer: reservoir,Münsterland,C,33,51.940755,6.952083,way,1001491923,https://www.openstreetmap.org/way/1001491923
osm-way-85535982,Löschwasserteich,Gewässer: reservoir,Münsterland,C,33,51.938033,7.522832,way,85535982,https://www.openstreetmap.org/way/85535982
osm-way-1001491929,RHB,Gewässer: reservoir,Münsterland,C,33,51.940912,6.953021,way,1001491929,https://www.openstreetmap.org/way/1001491929
osm-way-1001192372,RHB,Gewässer: reservoir,Münsterland,C,33,51.941675,6.951154,way,1001192372,https://www.openstreetmap.org/way/1001192372
osm-way-51971798,Regenrückhaltebecken Bürener Brok,Gewässer: reservoir,Münsterland,C,33,51.784347,7.736354,way,51971798,https://www.openstreetmap.org/way/51971798
osm-way-51971911,Regenrückhaltebecken Industriegebiet Viehfeld,Gewässer: reservoir,Münsterland,C,33,51.782469,7.730249,way,51971911,https://www.openstreetmap.org/way/51971911
osm-way-399086366,Rückhaltebecken,Gewässer: reservoir,Münsterland,C,33,51.833424,7.103069,way,399086366,https://www.openstreetmap.org/way/399086366
osm-way-67868700,Dammloch,Angel-/Fishing-POI,Niederrhein/Düsseldorf,A,100,51.273296,6.697341,way,67868700,https://www.openstreetmap.org/way/67868700
osm-way-23905309,Glabbacher Bruch,Angel-/Fishing-POI,Niederrhein/Düsseldorf,A,100,51.351726,6.263015,way,23905309,https://www.openstreetmap.org/way/23905309
osm-way-23905310,Hinsbecker Bruch,Angel-/Fishing-POI,Niederrhein/Düsseldorf,A,100,51.344933,6.253215,way,23905310,https://www.openstreetmap.org/way/23905310
osm-way-24535520,Latumer See,Angel-/Fishing-POI,Niederrhein/Düsseldorf,A,100,51.304057,6.667907,way,24535520,https://www.openstreetmap.org/way/24535520
osm-relation-2329230,Linnertzsee,Angel-/Fishing-POI,Niederrhein/Düsseldorf,A,100,51.249957,6.644277,relation,2329230,https://www.openstreetmap.org/relation/2329230
osm-relation-2329231,Römersee,Angel-/Fishing-POI,Niederrhein/Düsseldorf,A,100,51.22375,6.683652,relation,2329231,https://www.openstreetmap.org/relation/2329231
osm-way-150282482,Sangsheide,Angel-/Fishing-POI,Niederrhein/Düsseldorf,A,100,51.238505,6.669276,way,150282482,https://www.openstreetmap.org/way/150282482
osm-way-145178867,Poelvennsee,Angel-/Fishing-POI,Niederrhein/Düsseldorf,A,84,51.357214,6.254938,way,145178867,https://www.openstreetmap.org/way/145178867
osm-way-145178868,Schroliksee,Angel-/Fishing-POI,Niederrhein/Düsseldorf,A,84,51.350118,6.246643,way,145178868,https://www.openstreetmap.org/way/145178868
osm-way-48485243,Angelpark Schermbeck,Angel-/Fishing-POI,Niederrhein/Düsseldorf,A,82,51.731195,6.850722,way,48485243,https://www.openstreetmap.org/way/48485243
osm-way-155143836,Forellenhof Kiefer,Angel-/Fishing-POI,Niederrhein/Düsseldorf,A,82,51.539303,6.854353,way,155143836,https://www.openstreetmap.org/way/155143836
osm-relation-948981,Unterbacher See,Gewässer: lake,Niederrhein/Düsseldorf,A,80,51.195491,6.893053,relation,948981,https://www.openstreetmap.org/relation/948981
osm-way-42301897,Angelgewässer Petri Heil,Angel-/Fishing-POI,Niederrhein/Düsseldorf,A,78,51.682578,6.190018,way,42301897,https://www.openstreetmap.org/way/42301897
osm-way-956023118,Angelpark Zur Grafenmühle,Angel-/Fishing-POI,Niederrhein/Düsseldorf,A,78,51.56419,6.876348,way,956023118,https://www.openstreetmap.org/way/956023118
osm-way-108376730,Fischerei Sportverein Lank 1934 e.V.,Angel-/Fishing-POI,Niederrhein/Düsseldorf,A,78,51.301817,6.666994,way,108376730,https://www.openstreetmap.org/way/108376730
osm-way-9702056,Hubertusgewässer,Angel-/Fishing-POI,Niederrhein/Düsseldorf,A,78,51.853155,6.269865,way,9702056,https://www.openstreetmap.org/way/9702056
osm-relation-6694451,Hubertusgewässer,Angel-/Fishing-POI,Niederrhein/Düsseldorf,A,78,51.85215,6.271961,relation,6694451,https://www.openstreetmap.org/relation/6694451
osm-node-2639993899,Angelparadies Zwillbrock,Angel-/Fishing-POI,Niederrhein/Düsseldorf,B,74,52.050885,6.708037,node,2639993899,https://www.openstreetmap.org/node/2639993899
osm-node-6284675322,Angelsportverein Düsseldorfer Angelfreunde 1964 e.V.,Angel-/Fishing-POI,Niederrhein/Düsseldorf,B,74,51.179251,6.904389,node,6284675322,https://www.openstreetmap.org/node/6284675322
osm-node-9710085722,Jogis Teich,Angel-/Fishing-POI,Niederrhein/Düsseldorf,B,74,51.915899,6.829427,node,9710085722,https://www.openstreetmap.org/node/9710085722
osm-way-46511130,Angelgewässer FV Rheintreu Meerbusch e.V.,Angel-/Fishing-POI,Niederrhein/Düsseldorf,B,72,51.294521,6.619033,way,46511130,https://www.openstreetmap.org/way/46511130
osm-way-4798818,Wambachsee,Gewässer: lake,Niederrhein/Düsseldorf,B,72,51.386514,6.792747,way,4798818,https://www.openstreetmap.org/way/4798818
osm-node-86946338,ASV Gut Fang,Angel-/Fishing-POI,Niederrhein/Düsseldorf,B,70,51.431676,6.656726,node,86946338,https://www.openstreetmap.org/node/86946338
osm-node-268982174,Angeln,Angel-/Fishing-POI,Niederrhein/Düsseldorf,B,70,51.615577,6.361069,node,268982174,https://www.openstreetmap.org/node/268982174
osm-node-268982175,Angeln,Angel-/Fishing-POI,Niederrhein/Düsseldorf,B,70,51.615607,6.360232,node,268982175,https://www.openstreetmap.org/node/268982175
osm-node-12890581453,Angelsportverein Petri Heil Leuth e.V.,Angel-/Fishing-POI,Niederrhein/Düsseldorf,B,70,51.341645,6.210825,node,12890581453,https://www.openstreetmap.org/node/12890581453
osm-way-105275643,Angelsportverein Wesel e.V.,Angel-/Fishing-POI,Niederrhein/Düsseldorf,B,70,51.669554,6.584611,way,105275643,https://www.openstreetmap.org/way/105275643
osm-node-7711862482,Fischgewässer. Betreten des Geländes und Angeln für Unbefugte verboten. ASV-Weeze,Angel-/Fishing-POI,Niederrhein/Düsseldorf,B,70,51.660803,6.19525,node,7711862482,https://www.openstreetmap.org/node/7711862482
osm-way-250800388,Interessengemeinschaft Hohenforster See,Angel-/Fishing-POI,Niederrhein/Düsseldorf,B,70,51.397158,6.582462,way,250800388,https://www.openstreetmap.org/way/250800388
osm-node-258918466,SAV Benrath,Angel-/Fishing-POI,Niederrhein/Düsseldorf,B,70,51.159574,6.895956,node,258918466,https://www.openstreetmap.org/node/258918466
osm-node-86979052,SFC Rheinhausen,Angel-/Fishing-POI,Niederrhein/Düsseldorf,B,70,51.434883,6.648356,node,86979052,https://www.openstreetmap.org/node/86979052
osm-node-981554273,Sportfischer-Verein Kaarst e.V.,Angel-/Fishing-POI,Niederrhein/Düsseldorf,B,70,51.230038,6.567945,node,981554273,https://www.openstreetmap.org/node/981554273
osm-relation-17192,Aasee,Gewässer: lake,Niederrhein/Düsseldorf,B,68,51.829733,6.635042,relation,17192,https://www.openstreetmap.org/relation/17192
osm-node-8003519948,Angler-Interessengemeinschaft „Rheinpreußen“ Rheinkamp-Meerbeck e.V.,Angel-/Fishing-POI,Niederrhein/Düsseldorf,B,68,51.48171,6.649607,node,8003519948,https://www.openstreetmap.org/node/8003519948
osm-relation-13917925,Biotop-See,Gewässer: lake,Niederrhein/Düsseldorf,B,68,51.822178,6.933938,relation,13917925,https://www.openstreetmap.org/relation/13917925
osm-relation-164285,Elbsee,Gewässer: lake,Niederrhein/Düsseldorf,B,68,51.185119,6.900107,relation,164285,https://www.openstreetmap.org/relation/164285
osm-relation-14393952,Entenfang,Gewässer: lake,Niederrhein/Düsseldorf,B,68,51.375742,6.817342,relation,14393952,https://www.openstreetmap.org/relation/14393952
osm-relation-13485439,Jröne Meerke,Gewässer: lake,Niederrhein/Düsseldorf,B,68,51.214944,6.653708,relation,13485439,https://www.openstreetmap.org/relation/13485439
osm-way-25332287,Kettwiger Stausee,Gewässer: reservoir,Niederrhein/Düsseldorf,B,68,51.359614,6.944763,way,25332287,https://www.openstreetmap.org/way/25332287
osm-relation-16024995,Kranenmeer,Gewässer: lake,Niederrhein/Düsseldorf,B,68,51.784178,6.948258,relation,16024995,https://www.openstreetmap.org/relation/16024995
osm-way-30797894,Lange Renne,Gewässer: lake,Niederrhein/Düsseldorf,B,68,51.727495,6.485157,way,30797894,https://www.openstreetmap.org/way/30797894
osm-way-92316123,Reuschenberger See,Gewässer: lake,Niederrhein/Düsseldorf,B,68,51.176018,6.675775,way,92316123,https://www.openstreetmap.org/way/92316123
osm-way-29353418,Römersee,Gewässer: lake,Niederrhein/Düsseldorf,B,68,51.849418,6.924062,way,29353418,https://www.openstreetmap.org/way/29353418
osm-relation-31234,Toeppersee,Gewässer: lake,Niederrhein/Düsseldorf,B,68,51.401556,6.679645,relation,31234,https://www.openstreetmap.org/relation/31234
osm-relation-6133011,Weikensee,Gewässer: lake,Niederrhein/Düsseldorf,B,68,51.741146,6.598188,relation,6133011,https://www.openstreetmap.org/relation/6133011
osm-way-79268879,Wylermeer,Gewässer: lake,Niederrhein/Düsseldorf,B,68,51.81757,5.955674,way,79268879,https://www.openstreetmap.org/way/79268879
osm-way-28983812,Sommerbad Neptun,Gewässer: lake,Niederrhein/Düsseldorf,B,64,51.308344,6.572409,way,28983812,https://www.openstreetmap.org/way/28983812
osm-way-142702542,Kaiserteich,Gewässer: pond,Niederrhein/Düsseldorf,B,63,51.217448,6.773749,way,142702542,https://www.openstreetmap.org/way/142702542
osm-way-22560568,Kögraben,Gewässer: pond,Niederrhein/Düsseldorf,B,63,51.222732,6.778839,way,22560568,https://www.openstreetmap.org/way/22560568
osm-relation-4868473,Schwanenspiegel,Gewässer: pond,Niederrhein/Düsseldorf,B,63,51.218403,6.773421,relation,4868473,https://www.openstreetmap.org/relation/4868473
osm-relation-966548,Weiher an der Landskrone,Gewässer: pond,Niederrhein/Düsseldorf,B,63,51.228073,6.77907,relation,966548,https://www.openstreetmap.org/relation/966548
osm-relation-1351906,Angermunder See,Gewässer: lake,Niederrhein/Düsseldorf,B,62,51.318856,6.789544,relation,1351906,https://www.openstreetmap.org/relation/1351906
osm-relation-1120190,Barbarasee,Gewässer: lake,Niederrhein/Düsseldorf,B,62,51.40984,6.79178,relation,1120190,https://www.openstreetmap.org/relation/1120190
osm-way-35008830,Borner See,Gewässer: lake,Niederrhein/Düsseldorf,B,62,51.24126,6.212346,way,35008830,https://www.openstreetmap.org/way/35008830
osm-way-35044256,De Wittsee,Gewässer: lake,Niederrhein/Düsseldorf,B,62,51.326336,6.241841,way,35044256,https://www.openstreetmap.org/way/35044256
osm-relation-12117264,Diersfordter Waldsee,Gewässer: lake,Niederrhein/Düsseldorf,B,62,51.693455,6.529483,relation,12117264,https://www.openstreetmap.org/relation/12117264
osm-relation-162870,Elfrather See,Gewässer: lake,Niederrhein/Düsseldorf,B,62,51.385608,6.625434,relation,162870,https://www.openstreetmap.org/relation/162870
osm-way-150110410,Grüner See,Gewässer: lake,Niederrhein/Düsseldorf,B,62,51.28463,6.821906,way,150110410,https://www.openstreetmap.org/way/150110410
osm-way-144584599,Hariksee,Gewässer: lake,Niederrhein/Düsseldorf,B,62,51.22339,6.223329,way,144584599,https://www.openstreetmap.org/way/144584599
osm-relation-1985657,Haubachsee,Gewässer: lake,Niederrhein/Düsseldorf,B,62,51.374444,6.802666,relation,1985657,https://www.openstreetmap.org/relation/1985657
osm-relation-4507861,Heidhofsee,Gewässer: lake,Niederrhein/Düsseldorf,B,62,51.600458,6.869604,relation,4507861,https://www.openstreetmap.org/relation/4507861
osm-way-24524213,Kaarster See,Gewässer: lake,Niederrhein/Düsseldorf,B,62,51.230093,6.575423,way,24524213,https://www.openstreetmap.org/way/24524213
osm-way-23795791,Kaplanskuhlen,Gewässer: lake,Niederrhein/Düsseldorf,B,62,51.471686,6.482543,way,23795791,https://www.openstreetmap.org/way/23795791
osm-relation-21384,Tenderingssee,Gewässer: lake,Niederrhein/Düsseldorf,B,62,51.597521,6.72144,relation,21384,https://www.openstreetmap.org/relation/21384
osm-way-24004674,Venekotensee,Gewässer: lake,Niederrhein/Düsseldorf,B,62,51.233099,6.12806,way,24004674,https://www.openstreetmap.org/way/24004674
osm-way-9247092,Wisseler See,Gewässer: lake,Niederrhein/Düsseldorf,B,62,51.760548,6.299812,way,9247092,https://www.openstreetmap.org/way/9247092
osm-node-2460858887,Angelsportverein Niederrhein 1932,Angel-/Fishing-POI,Niederrhein/Düsseldorf,B,60,51.408141,6.793481,node,2460858887,https://www.openstreetmap.org/node/2460858887
osm-way-26300029,Beeckerwerther See,Gewässer: lake,Niederrhein/Düsseldorf,B,60,51.476566,6.712457,way,26300029,https://www.openstreetmap.org/way/26300029
osm-node-2917844620,SSCK e.V. - Angelabteilung,Angel-/Fishing-POI,Niederrhein/Düsseldorf,B,60,51.367584,6.449374,node,2917844620,https://www.openstreetmap.org/node/2917844620
osm-way-93248593,Sandhof See,Gewässer: lake,Niederrhein/Düsseldorf,B,60,51.159529,6.751753,way,93248593,https://www.openstreetmap.org/way/93248593
osm-node-2460859208,Wedau-Fischerei-Verein,Angel-/Fishing-POI,Niederrhein/Düsseldorf,B,60,51.408322,6.784203,node,2460859208,https://www.openstreetmap.org/node/2460859208
osm-way-4797101,Ehemaliger Badesee,Gewässer: pond,Niederrhein/Düsseldorf,B,59,51.384874,6.628932,way,4797101,https://www.openstreetmap.org/way/4797101
osm-way-310956104,Angelpark Genhodder,Fishing-Shop/POI (kein Gewässer),Niederrhein/Düsseldorf,B,57,51.166054,6.332012,way,310956104,https://www.openstreetmap.org/way/310956104
osm-node-11684875795,Anglerecke Geldern,Fishing-Shop/POI (kein Gewässer),Niederrhein/Düsseldorf,B,57,51.521069,6.308927,node,11684875795,https://www.openstreetmap.org/node/11684875795
osm-node-2178646714,Askari Angelsport,Fishing-Shop/POI (kein Gewässer),Niederrhein/Düsseldorf,B,57,51.437615,6.781625,node,2178646714,https://www.openstreetmap.org/node/2178646714
osm-way-24881399,Albertussee,Gewässer: lake,Niederrhein/Düsseldorf,B,56,51.235429,6.722541,way,24881399,https://www.openstreetmap.org/way/24881399
osm-way-93369802,Am Blankenwasser,Gewässer: lake,Niederrhein/Düsseldorf,B,56,51.159795,6.765147,way,93369802,https://www.openstreetmap.org/way/93369802
osm-way-151106321,Angelsee,Gewässer: lake,Niederrhein/Düsseldorf,B,56,51.16213,6.277322,way,151106321,https://www.openstreetmap.org/way/151106321
osm-way-165505100,Aspeler Meer,Gewässer: lake,Niederrhein/Düsseldorf,B,56,51.77251,6.431821,way,165505100,https://www.openstreetmap.org/way/165505100
osm-way-15263554,Auf der Weide,Gewässer: lake,Niederrhein/Düsseldorf,B,56,51.216996,6.551189,way,15263554,https://www.openstreetmap.org/way/15263554
osm-way-762822505,Ausgleichsbecken,Gewässer: reservoir,Niederrhein/Düsseldorf,B,56,51.329058,6.893562,way,762822505,https://www.openstreetmap.org/way/762822505
osm-way-25796083,Badesee,Gewässer: lake,Niederrhein/Düsseldorf,B,56,51.834279,6.790691,way,25796083,https://www.openstreetmap.org/way/25796083
osm-way-278481948,Baggersee,Gewässer: lake,Niederrhein/Düsseldorf,B,56,51.878508,6.697942,way,278481948,https://www.openstreetmap.org/way/278481948
osm-way-762822503,Belebungsbecken,Gewässer: reservoir,Niederrhein/Düsseldorf,B,56,51.329213,6.893519,way,762822503,https://www.openstreetmap.org/way/762822503
osm-relation-3208114,Bergsee,Gewässer: lake,Niederrhein/Düsseldorf,B,56,51.432486,6.654225,relation,3208114,https://www.openstreetmap.org/relation/3208114
osm-way-4798813,Bertasee,Gewässer: lake,Niederrhein/Düsseldorf,B,56,51.40858,6.784857,way,4798813,https://www.openstreetmap.org/way/4798813
osm-way-491827016,Biotop,Gewässer: lake,Niederrhein/Düsseldorf,B,56,51.405507,6.433072,way,491827016,https://www.openstreetmap.org/way/491827016
osm-relation-17433788,Biotop,Gewässer: lake,Niederrhein/Düsseldorf,B,56,51.503741,6.919093,relation,17433788,https://www.openstreetmap.org/relation/17433788
osm-way-4798816,Blauer See,Gewässer: lake,Niederrhein/Düsseldorf,B,56,51.394515,6.808058,way,4798816,https://www.openstreetmap.org/way/4798816
osm-way-23412652,Botzelaer Meer,Gewässer: lake,Niederrhein/Düsseldorf,B,56,51.731941,6.355294,way,23412652,https://www.openstreetmap.org/way/23412652
osm-way-375535547,Breyeller See,Gewässer: lake,Niederrhein/Düsseldorf,B,56,51.283664,6.270151,way,375535547,https://www.openstreetmap.org/way/375535547
osm-way-375535551,Breyeller See,Gewässer: lake,Niederrhein/Düsseldorf,B,56,51.289156,6.272498,way,375535551,https://www.openstreetmap.org/way/375535551
osm-way-4798819,Böllertsee,Gewässer: lake,Niederrhein/Düsseldorf,B,56,51.382125,6.790988,way,4798819,https://www.openstreetmap.org/way/4798819
osm-relation-4201727,Deichsee,Gewässer: lake,Niederrhein/Düsseldorf,B,56,51.196553,6.807822,relation,4201727,https://www.openstreetmap.org/relation/4201727
osm-way-24235859,Die Bay,Gewässer: lake,Niederrhein/Düsseldorf,B,56,51.502797,6.430662,way,24235859,https://www.openstreetmap.org/way/24235859
osm-relation-1085440,Dreiecksweiher,Gewässer: lake,Niederrhein/Düsseldorf,B,56,51.181044,6.8999,relation,1085440,https://www.openstreetmap.org/relation/1085440
osm-way-87646837,Drostewoy,Gewässer: lake,Niederrhein/Düsseldorf,B,56,51.672469,6.515236,way,87646837,https://www.openstreetmap.org/way/87646837
osm-way-35340355,Empelsches Meer,Gewässer: lake,Niederrhein/Düsseldorf,B,56,51.794047,6.417605,way,35340355,https://www.openstreetmap.org/way/35340355
osm-way-4779597,Essenberger See,Gewässer: lake,Niederrhein/Düsseldorf,B,56,51.441386,6.698177,way,4779597,https://www.openstreetmap.org/way/4779597
osm-way-61317163,Eyller See,Gewässer: lake,Niederrhein/Düsseldorf,B,56,51.43485,6.385041,way,61317163,https://www.openstreetmap.org/way/61317163
osm-way-27634349,Ferkensbruch,Gewässer: lake,Niederrhein/Düsseldorf,B,56,51.310609,6.255723,way,27634349,https://www.openstreetmap.org/way/27634349
osm-way-142691611,Fliedner-See,Gewässer: lake,Niederrhein/Düsseldorf,B,56,51.294128,6.748828,way,142691611,https://www.openstreetmap.org/way/142691611
osm-way-4797108,Großenbaumer See,Gewässer: lake,Niederrhein/Düsseldorf,B,56,51.36119,6.773932,way,4797108,https://www.openstreetmap.org/way/4797108
osm-way-24050165,Großer Parsick,Gewässer: lake,Niederrhein/Düsseldorf,B,56,51.425028,6.516657,way,24050165,https://www.openstreetmap.org/way/24050165
osm-relation-15870915,Grünersee,Gewässer: lake,Niederrhein/Düsseldorf,B,56,51.995264,6.939707,relation,15870915,https://www.openstreetmap.org/relation/15870915
osm-way-23697740,Hacksteinskuhlen,Gewässer: lake,Niederrhein/Düsseldorf,B,56,51.444581,6.504689,way,23697740,https://www.openstreetmap.org/way/23697740
osm-relation-6011685,Hannenweiher,Gewässer: lake,Niederrhein/Düsseldorf,B,56,51.184595,6.516591,relation,6011685,https://www.openstreetmap.org/relation/6011685
osm-relation-7164120,Hardtbergsee,Gewässer: lake,Niederrhein/Düsseldorf,B,56,51.643304,6.917437,relation,7164120,https://www.openstreetmap.org/relation/7164120
osm-way-108927461,Heideweiher,Gewässer: lake,Niederrhein/Düsseldorf,B,56,51.390818,6.582654,way,108927461,https://www.openstreetmap.org/way/108927461
osm-way-1226922699,Holländer See,Gewässer: lake,Niederrhein/Düsseldorf,B,56,51.508317,6.325932,way,1226922699,https://www.openstreetmap.org/way/1226922699
osm-way-59125322,Kiebitzsee,Gewässer: lake,Niederrhein/Düsseldorf,B,56,51.902072,6.153164,way,59125322,https://www.openstreetmap.org/way/59125322
osm-way-32918098,Klostersee,Gewässer: lake,Niederrhein/Düsseldorf,B,56,51.899144,6.776948,way,32918098,https://www.openstreetmap.org/way/32918098
osm-way-454329471,Klärbecken,Gewässer: reservoir,Niederrhein/Düsseldorf,B,56,51.705225,6.054141,way,454329471,https://www.openstreetmap.org/way/454329471
osm-way-1030353605,Klärbecken,Gewässer: reservoir,Niederrhein/Düsseldorf,B,56,51.750161,6.795922,way,1030353605,https://www.openstreetmap.org/way/1030353605
osm-way-1030353606,Klärbecken,Gewässer: reservoir,Niederrhein/Düsseldorf,B,56,51.750401,6.795753,way,1030353606,https://www.openstreetmap.org/way/1030353606
osm-way-25983313,Krur-Teich,Gewässer: lake,Niederrhein/Düsseldorf,B,56,51.192775,6.695575,way,25983313,https://www.openstreetmap.org/way/25983313
osm-way-226744202,Königshüttesee,Gewässer: lake,Niederrhein/Düsseldorf,B,56,51.366575,6.463636,way,226744202,https://www.openstreetmap.org/way/226744202
osm-way-545745843,Laarer See,Gewässer: lake,Niederrhein/Düsseldorf,B,56,51.235759,6.202905,way,545745843,https://www.openstreetmap.org/way/545745843
osm-way-142691613,Lambertus-See,Gewässer: lake,Niederrhein/Düsseldorf,B,56,51.294414,6.754629,way,142691613,https://www.openstreetmap.org/way/142691613
osm-way-1306607130,Löschteich,Gewässer: reservoir,Niederrhein/Düsseldorf,B,56,51.766975,6.856639,way,1306607130,https://www.openstreetmap.org/way/1306607130
osm-way-37683818,Löwensee,Gewässer: lake,Niederrhein/Düsseldorf,B,56,51.246391,6.60114,way,37683818,https://www.openstreetmap.org/way/37683818
osm-way-4103491,Mahnensee,Gewässer: lake,Niederrhein/Düsseldorf,B,56,51.77128,6.344234,way,4103491,https://www.openstreetmap.org/way/4103491
osm-way-762822502,Membranbecken,Gewässer: reservoir,Niederrhein/Düsseldorf,B,56,51.329166,6.893419,way,762822502,https://www.openstreetmap.org/way/762822502
osm-way-23333321,Menzelsee,Gewässer: lake,Niederrhein/Düsseldorf,B,56,51.179046,6.907894,way,23333321,https://www.openstreetmap.org/way/23333321
osm-way-327633079,Mortel,Gewässer: lake,Niederrhein/Düsseldorf,B,56,51.484133,6.239839,way,327633079,https://www.openstreetmap.org/way/327633079
osm-way-26644022,Mühlengraben,Gewässer: lake,Niederrhein/Düsseldorf,B,56,51.361879,6.937195,way,26644022,https://www.openstreetmap.org/way/26644022
osm-way-109553932,Mühlenteich,Gewässer: reservoir,Niederrhein/Düsseldorf,B,56,51.753674,6.949355,way,109553932,https://www.openstreetmap.org/way/109553932
osm-way-227408176,Nassschlammspeicher,Gewässer: reservoir,Niederrhein/Düsseldorf,B,56,51.690651,6.149743,way,227408176,https://www.openstreetmap.org/way/227408176
osm-way-23412395,Oybaum Südsee,Gewässer: lake,Niederrhein/Düsseldorf,B,56,51.731372,6.331564,way,23412395,https://www.openstreetmap.org/way/23412395
osm-way-46687614,Pferdeweiher,Gewässer: lake,Niederrhein/Düsseldorf,B,56,51.243127,6.240575,way,46687614,https://www.openstreetmap.org/way/46687614
osm-way-706473964,Prekkesee,Gewässer: lake,Niederrhein/Düsseldorf,B,56,51.668593,6.461916,way,706473964,https://www.openstreetmap.org/way/706473964
osm-relation-1674950,Rahmer See,Gewässer: lake,Niederrhein/Düsseldorf,B,56,51.356042,6.768529,relation,1674950,https://www.openstreetmap.org/relation/1674950
osm-relation-17433861,Reeser Meer,Gewässer: lake,Niederrhein/Düsseldorf,B,56,51.761504,6.456828,relation,17433861,https://www.openstreetmap.org/relation/17433861
osm-way-1015261871,Regenrückhaltebecken,Gewässer: reservoir,Niederrhein/Düsseldorf,B,56,51.49073,6.94848,way,1015261871,https://www.openstreetmap.org/way/1015261871
osm-way-43063545,Regenrückhaltebecken Businesspark Asterlagen,Gewässer: lake,Niederrhein/Düsseldorf,B,56,51.429413,6.696684,way,43063545,https://www.openstreetmap.org/way/43063545
osm-way-1210316465,Regenrückhaltebecken Pausmühlenbach,Gewässer: reservoir,Niederrhein/Düsseldorf,B,56,51.489943,6.948139,way,1210316465,https://www.openstreetmap.org/way/1210316465
osm-way-143751593,Regenwasserklärbecken,Gewässer: reservoir,Niederrhein/Düsseldorf,B,56,51.249597,6.467493,way,143751593,https://www.openstreetmap.org/way/143751593
osm-way-4797114,Remberger See,Gewässer: lake,Niederrhein/Düsseldorf,B,56,51.366288,6.761708,way,4797114,https://www.openstreetmap.org/way/4797114
osm-relation-6577941,Roosenhofsee,Gewässer: lake,Niederrhein/Düsseldorf,B,56,51.714413,6.439494,relation,6577941,https://www.openstreetmap.org/relation/6577941
osm-way-151171897,Rotbachsee,Gewässer: lake,Niederrhein/Düsseldorf,B,56,51.569121,6.782511,way,151171897,https://www.openstreetmap.org/way/151171897
osm-way-1291902763,Rückhaltebecken,Gewässer: reservoir,Niederrhein/Düsseldorf,B,56,51.524723,6.357517,way,1291902763,https://www.openstreetmap.org/way/1291902763
osm-way-762822504,Sand- und Fettfang,Gewässer: reservoir,Niederrhein/Düsseldorf,B,56,51.329246,6.893591,way,762822504,https://www.openstreetmap.org/way/762822504
osm-way-208354170,Sandgrube Volbrockshof,Gewässer: lake,Niederrhein/Düsseldorf,B,56,51.64341,6.236333,way,208354170,https://www.openstreetmap.org/way/208354170
osm-way-23340124,Schlupkotensee,Gewässer: lake,Niederrhein/Düsseldorf,B,56,51.158394,6.897229,way,23340124,https://www.openstreetmap.org/way/23340124
osm-way-158346207,Schmitzsee,Gewässer: lake,Niederrhein/Düsseldorf,B,56,51.315435,6.774388,way,158346207,https://www.openstreetmap.org/way/158346207
osm-way-4779037,Schwafheimer See,Gewässer: lake,Niederrhein/Düsseldorf,B,56,51.431975,6.658343,way,4779037,https://www.openstreetmap.org/way/4779037
osm-way-181508237,Schwattet Gatt,Gewässer: lake,Niederrhein/Düsseldorf,B,56,52.081167,6.8673,way,181508237,https://www.openstreetmap.org/way/181508237
osm-way-203026694,Schönungsteich,Gewässer: reservoir,Niederrhein/Düsseldorf,B,56,51.347233,6.353913,way,203026694,https://www.openstreetmap.org/way/203026694
osm-way-203026698,Schönungsteich,Gewässer: reservoir,Niederrhein/Düsseldorf,B,56,51.347688,6.35413,way,203026698,https://www.openstreetmap.org/way/203026698
osm-way-620375891,Schönungsteich,Gewässer: reservoir,Niederrhein/Düsseldorf,B,56,51.348015,6.354296,way,620375891,https://www.openstreetmap.org/way/620375891
osm-way-515902418,Schönungsteich,Gewässer: reservoir,Niederrhein/Düsseldorf,B,56,51.851323,6.830276,way,515902418,https://www.openstreetmap.org/way/515902418
osm-way-155425631,"Senkungssee Elsbach ""Pfingstsee""",Gewässer: lake,Niederrhein/Düsseldorf,B,56,51.586364,6.861043,way,155425631,https://www.openstreetmap.org/way/155425631
osm-way-108337571,Sporthafen Obermörmter,Gewässer: lake,Niederrhein/Düsseldorf,B,56,51.749058,6.390717,way,108337571,https://www.openstreetmap.org/way/108337571
osm-relation-1381557,Stadtwaldweiher,Gewässer: lake,Niederrhein/Düsseldorf,B,56,51.3542,6.582734,relation,1381557,https://www.openstreetmap.org/relation/1381557
osm-relation-13325520,Suitbertus-See,Gewässer: lake,Niederrhein/Düsseldorf,B,56,51.294072,6.744318,relation,13325520,https://www.openstreetmap.org/relation/13325520
osm-way-148577613,Uni-See,Gewässer: lake,Niederrhein/Düsseldorf,B,56,51.191543,6.805122,way,148577613,https://www.openstreetmap.org/way/148577613
osm-way-88307027,Vereinsbad Tonwerke,Gewässer: lake,Niederrhein/Düsseldorf,B,56,51.850487,6.663745,way,88307027,https://www.openstreetmap.org/way/88307027
osm-relation-15085185,Volksgartenweiher,Gewässer: lake,Niederrhein/Düsseldorf,B,56,51.192231,6.465954,relation,15085185,https://www.openstreetmap.org/relation/15085185
osm-way-227408190,Voreindicker,Gewässer: reservoir,Niederrhein/Düsseldorf,B,56,51.690275,6.150952,way,227408190,https://www.openstreetmap.org/way/227408190
osm-relation-17433785,Waldsee,Gewässer: lake,Niederrhein/Düsseldorf,B,56,51.339,6.856442,relation,17433785,https://www.openstreetmap.org/relation/17433785
osm-way-69844600,Waldwinkelniep,Gewässer: lake,Niederrhein/Düsseldorf,B,56,51.405749,6.534908,way,69844600,https://www.openstreetmap.org/way/69844600
osm-way-907250386,Wasserwirtschaft,Gewässer: reservoir,Niederrhein/Düsseldorf,B,56,51.360828,6.719577,way,907250386,https://www.openstreetmap.org/way/907250386
osm-relation-4285756,Weihnachtssee,Gewässer: lake,Niederrhein/Düsseldorf,B,56,51.589518,6.858145,relation,4285756,https://www.openstreetmap.org/relation/4285756
osm-relation-1985658,Wildförstersee,Gewässer: lake,Niederrhein/Düsseldorf,B,56,51.376114,6.794867,relation,1985658,https://www.openstreetmap.org/relation/1985658
osm-way-27618180,Windmühlenbruch,Gewässer: lake,Niederrhein/Düsseldorf,B,56,51.305674,6.26511,way,27618180,https://www.openstreetmap.org/way/27618180
osm-way-170732672,Wolfersömer Woy,Gewässer: lake,Niederrhein/Düsseldorf,B,56,51.76031,6.428763,way,170732672,https://www.openstreetmap.org/way/170732672
osm-way-24059416,Wolfssee,Gewässer: lake,Niederrhein/Düsseldorf,B,56,51.373767,6.276088,way,24059416,https://www.openstreetmap.org/way/24059416
osm-way-9244506,Xantener Nordsee,Gewässer: lake,Niederrhein/Düsseldorf,B,56,51.698867,6.426846,way,9244506,https://www.openstreetmap.org/way/9244506
osm-way-9244507,Xantener Südsee,Gewässer: lake,Niederrhein/Düsseldorf,B,56,51.678642,6.44791,way,9244507,https://www.openstreetmap.org/way/9244507
osm-way-30884577,Zamek See,Gewässer: lake,Niederrhein/Düsseldorf,B,56,51.192709,6.867329,way,30884577,https://www.openstreetmap.org/way/30884577
osm-way-227408192,Zentralspeicher,Gewässer: reservoir,Niederrhein/Düsseldorf,B,56,51.690458,6.149771,way,227408192,https://www.openstreetmap.org/way/227408192
osm-way-160143139,Baggersee,Gewässer: pond,Niederrhein/Düsseldorf,B,55,51.23712,6.642313,way,160143139,https://www.openstreetmap.org/way/160143139
osm-way-26430761,Angelsportverein Löhnen,Angel-/Fishing-POI,Niederrhein/Düsseldorf,C,54,51.581679,6.643315,way,26430761,https://www.openstreetmap.org/way/26430761
osm-way-1329980350,Mercatorbrunnen,Gewässer: reservoir,Niederrhein/Düsseldorf,C,54,51.435307,6.761497,way,1329980350,https://www.openstreetmap.org/way/1329980350
osm-way-50258477,Neusser Sportfischer 1951 e.V.,Angel-/Fishing-POI,Niederrhein/Düsseldorf,C,54,51.246808,6.647403,way,50258477,https://www.openstreetmap.org/way/50258477
osm-way-459048256,way/459048256,Angel-/Fishing-POI,Niederrhein/Düsseldorf,C,54,51.638172,6.430775,way,459048256,https://www.openstreetmap.org/way/459048256
osm-way-459048257,way/459048257,Angel-/Fishing-POI,Niederrhein/Düsseldorf,C,54,51.637464,6.430375,way,459048257,https://www.openstreetmap.org/way/459048257
osm-way-459048258,way/459048258,Angel-/Fishing-POI,Niederrhein/Düsseldorf,C,54,51.637645,6.430152,way,459048258,https://www.openstreetmap.org/way/459048258
osm-way-459048259,way/459048259,Angel-/Fishing-POI,Niederrhein/Düsseldorf,C,54,51.637991,6.4305,way,459048259,https://www.openstreetmap.org/way/459048259
osm-way-459048260,way/459048260,Angel-/Fishing-POI,Niederrhein/Düsseldorf,C,54,51.637938,6.431188,way,459048260,https://www.openstreetmap.org/way/459048260
osm-way-459048261,way/459048261,Angel-/Fishing-POI,Niederrhein/Düsseldorf,C,54,51.63763,6.430877,way,459048261,https://www.openstreetmap.org/way/459048261
osm-way-459048262,way/459048262,Angel-/Fishing-POI,Niederrhein/Düsseldorf,C,54,51.637851,6.431479,way,459048262,https://www.openstreetmap.org/way/459048262
osm-way-885942517,way/885942517,Angel-/Fishing-POI,Niederrhein/Düsseldorf,C,54,51.62224,6.457583,way,885942517,https://www.openstreetmap.org/way/885942517
osm-way-885960771,way/885960771,Angel-/Fishing-POI,Niederrhein/Düsseldorf,C,54,51.622546,6.456789,way,885960771,https://www.openstreetmap.org/way/885960771
osm-way-885960772,way/885960772,Angel-/Fishing-POI,Niederrhein/Düsseldorf,C,54,51.622553,6.456439,way,885960772,https://www.openstreetmap.org/way/885960772
osm-way-885960773,way/885960773,Angel-/Fishing-POI,Niederrhein/Düsseldorf,C,54,51.622362,6.456411,way,885960773,https://www.openstreetmap.org/way/885960773
osm-way-885960774,way/885960774,Angel-/Fishing-POI,Niederrhein/Düsseldorf,C,54,51.622342,6.456854,way,885960774,https://www.openstreetmap.org/way/885960774
osm-way-885960775,way/885960775,Angel-/Fishing-POI,Niederrhein/Düsseldorf,C,54,51.621306,6.4588,way,885960775,https://www.openstreetmap.org/way/885960775
osm-way-885960776,way/885960776,Angel-/Fishing-POI,Niederrhein/Düsseldorf,C,54,51.621529,6.458595,way,885960776,https://www.openstreetmap.org/way/885960776
osm-way-885960777,way/885960777,Angel-/Fishing-POI,Niederrhein/Düsseldorf,C,54,51.62176,6.458378,way,885960777,https://www.openstreetmap.org/way/885960777
osm-way-885960778,way/885960778,Angel-/Fishing-POI,Niederrhein/Düsseldorf,C,54,51.622016,6.458105,way,885960778,https://www.openstreetmap.org/way/885960778
osm-node-9710085720,Angelcamp Leitingshof Borken-Weseke,Fishing-Shop/POI (kein Gewässer),Niederrhein/Düsseldorf,C,53,51.916502,6.83341,node,9710085720,https://www.openstreetmap.org/node/9710085720
osm-node-9856282101,Köder Laden,Fishing-Shop/POI (kein Gewässer),Niederrhein/Düsseldorf,C,53,51.220016,6.787498,node,9856282101,https://www.openstreetmap.org/node/9856282101
osm-way-23445039,Alter Hafen,Gewässer: pond,Niederrhein/Düsseldorf,C,51,51.224418,6.770735,way,23445039,https://www.openstreetmap.org/way/23445039
osm-way-386061029,Altwasser,Gewässer: pond,Niederrhein/Düsseldorf,C,51,51.396721,6.345675,way,386061029,https://www.openstreetmap.org/way/386061029
osm-way-437171980,Altwasser,Gewässer: pond,Niederrhein/Düsseldorf,C,51,51.414633,6.323112,way,437171980,https://www.openstreetmap.org/way/437171980
osm-way-716748538,Altwasser,Gewässer: pond,Niederrhein/Düsseldorf,C,51,51.429701,6.312891,way,716748538,https://www.openstreetmap.org/way/716748538
osm-way-4797102,Angelsee,Gewässer: pond,Niederrhein/Düsseldorf,C,51,51.386269,6.61956,way,4797102,https://www.openstreetmap.org/way/4797102
osm-relation-17433786,Baggersee Hardtsches Feld,Gewässer: pond,Niederrhein/Düsseldorf,C,51,51.518794,6.630689,relation,17433786,https://www.openstreetmap.org/relation/17433786
osm-way-149209641,Baggersee Myllendonk,Gewässer: pond,Niederrhein/Düsseldorf,C,51,51.211753,6.499438,way,149209641,https://www.openstreetmap.org/way/149209641
osm-way-147190676,Bendstieg,Gewässer: pond,Niederrhein/Düsseldorf,C,51,51.22663,6.446489,way,147190676,https://www.openstreetmap.org/way/147190676
osm-way-36850974,Biotop,Gewässer: pond,Niederrhein/Düsseldorf,C,51,51.520274,6.782133,way,36850974,https://www.openstreetmap.org/way/36850974
osm-way-34227890,Burgbenden,Gewässer: pond,Niederrhein/Düsseldorf,C,51,51.318924,6.375608,way,34227890,https://www.openstreetmap.org/way/34227890
osm-way-1093545314,Drüpter Meer,Gewässer: pond,Niederrhein/Düsseldorf,C,51,51.584895,6.540895,way,1093545314,https://www.openstreetmap.org/way/1093545314
osm-way-1178632953,Eiszeitliche Eisschlagsenke,Gewässer: pond,Niederrhein/Düsseldorf,C,51,51.587371,6.461653,way,1178632953,https://www.openstreetmap.org/way/1178632953
osm-way-246712021,Entenschlatt,Gewässer: pond,Niederrhein/Düsseldorf,C,51,51.900613,6.758089,way,246712021,https://www.openstreetmap.org/way/246712021
osm-way-33911437,Ententeich,Gewässer: pond,Niederrhein/Düsseldorf,C,51,51.562253,6.732177,way,33911437,https://www.openstreetmap.org/way/33911437
osm-way-161757368,Entenweiher,Gewässer: pond,Niederrhein/Düsseldorf,C,51,51.356275,6.408966,way,161757368,https://www.openstreetmap.org/way/161757368
osm-way-27066985,Ermitage-Teiche,Gewässer: pond,Niederrhein/Düsseldorf,C,51,51.651842,6.725994,way,27066985,https://www.openstreetmap.org/way/27066985
osm-way-476941779,Fanderhof,Gewässer: pond,Niederrhein/Düsseldorf,C,51,51.339062,6.408337,way,476941779,https://www.openstreetmap.org/way/476941779
osm-way-81119851,Fischteich,Gewässer: pond,Niederrhein/Düsseldorf,C,51,51.272921,6.901951,way,81119851,https://www.openstreetmap.org/way/81119851
osm-way-35952677,Flöthbachaue,Gewässer: pond,Niederrhein/Düsseldorf,C,51,51.253179,6.526799,way,35952677,https://www.openstreetmap.org/way/35952677
osm-way-87961724,Froschteich,Gewässer: pond,Niederrhein/Düsseldorf,C,51,51.203311,6.665379,way,87961724,https://www.openstreetmap.org/way/87961724
osm-way-155002250,Froschteich,Gewässer: pond,Niederrhein/Düsseldorf,C,51,51.758451,6.392207,way,155002250,https://www.openstreetmap.org/way/155002250
osm-way-12802194,Geroweiher,Gewässer: pond,Niederrhein/Düsseldorf,C,51,51.191677,6.429895,way,12802194,https://www.openstreetmap.org/way/12802194
osm-way-1391346400,Gletscherquelle,Gewässer: pond,Niederrhein/Düsseldorf,C,51,51.172225,6.647157,way,1391346400,https://www.openstreetmap.org/way/1391346400
osm-way-160270657,Gracht,Gewässer: pond,Niederrhein/Düsseldorf,C,51,51.368685,6.420323,way,160270657,https://www.openstreetmap.org/way/160270657
osm-way-180844925,Gracht,Gewässer: pond,Niederrhein/Düsseldorf,C,51,51.369465,6.419124,way,180844925,https://www.openstreetmap.org/way/180844925
osm-way-929164097,Gracht,Gewässer: pond,Niederrhein/Düsseldorf,C,51,51.369102,6.420114,way,929164097,https://www.openstreetmap.org/way/929164097
osm-way-624120709,Gänsereiter-Teich,Gewässer: pond,Niederrhein/Düsseldorf,C,51,51.428501,6.944082,way,624120709,https://www.openstreetmap.org/way/624120709
osm-way-199994482,Heidkamp,Gewässer: pond,Niederrhein/Düsseldorf,C,51,51.167739,6.319949,way,199994482,https://www.openstreetmap.org/way/199994482
osm-way-51080664,Heinrichs Ruh,Gewässer: pond,Niederrhein/Düsseldorf,C,51,51.261815,6.83381,way,51080664,https://www.openstreetmap.org/way/51080664
osm-way-255669447,Hochwasserrückhaltebecken Geneicken,Gewässer: basin,Niederrhein/Düsseldorf,C,51,51.176626,6.478546,way,255669447,https://www.openstreetmap.org/way/255669447
osm-way-453505889,Hochwasserrückhaltebecken Geneicken (Süd),Gewässer: basin,Niederrhein/Düsseldorf,C,51,51.172474,6.47334,way,453505889,https://www.openstreetmap.org/way/453505889
osm-way-128287150,In der Höll,Gewässer: pond,Niederrhein/Düsseldorf,C,51,51.291194,6.863561,way,128287150,https://www.openstreetmap.org/way/128287150
osm-way-692395739,Kaiserweiher,Gewässer: pond,Niederrhein/Düsseldorf,C,51,51.214055,6.266397,way,692395739,https://www.openstreetmap.org/way/692395739
osm-way-62041049,Kappsteich,Gewässer: pond,Niederrhein/Düsseldorf,C,51,51.300912,6.887756,way,62041049,https://www.openstreetmap.org/way/62041049
osm-way-733019761,Kiesgrube,Gewässer: pond,Niederrhein/Düsseldorf,C,51,51.403182,6.379805,way,733019761,https://www.openstreetmap.org/way/733019761
osm-way-658273297,Klosterteich,Gewässer: pond,Niederrhein/Düsseldorf,C,51,51.907468,6.77834,way,658273297,https://www.openstreetmap.org/way/658273297
osm-way-1056041637,Klärbecken,Gewässer: basin,Niederrhein/Düsseldorf,C,51,51.89703,6.845205,way,1056041637,https://www.openstreetmap.org/way/1056041637
osm-way-23979718,Kopfweiher,Gewässer: pond,Niederrhein/Düsseldorf,C,51,51.160571,6.8613,way,23979718,https://www.openstreetmap.org/way/23979718
osm-way-4802127,Kuhteich,Gewässer: pond,Niederrhein/Düsseldorf,C,51,51.521803,6.682295,way,4802127,https://www.openstreetmap.org/way/4802127
osm-way-314731953,Kullekopp,Gewässer: pond,Niederrhein/Düsseldorf,C,51,51.217404,6.932677,way,314731953,https://www.openstreetmap.org/way/314731953
osm-way-11970258,Königsee,Gewässer: pond,Niederrhein/Düsseldorf,C,51,51.451675,6.629378,way,11970258,https://www.openstreetmap.org/way/11970258
osm-way-386066551,Lohberger Weiher,Gewässer: pond,Niederrhein/Düsseldorf,C,51,51.584487,6.762898,way,386066551,https://www.openstreetmap.org/way/386066551
osm-way-294765785,Mare Nostrum,Gewässer: pond,Niederrhein/Düsseldorf,C,51,51.558745,6.202874,way,294765785,https://www.openstreetmap.org/way/294765785
osm-way-113253494,Melickerven,Gewässer: pond,Niederrhein/Düsseldorf,C,51,51.175684,6.07882,way,113253494,https://www.openstreetmap.org/way/113253494
osm-way-76120202,Mühlbrachter See,Gewässer: pond,Niederrhein/Düsseldorf,C,51,51.288482,6.164946,way,76120202,https://www.openstreetmap.org/way/76120202
osm-way-325326346,Mühlenteich,Gewässer: pond,Niederrhein/Düsseldorf,C,51,51.763283,6.641179,way,325326346,https://www.openstreetmap.org/way/325326346
osm-way-347638177,Nordkanal,Gewässer: pond,Niederrhein/Düsseldorf,C,51,51.256226,6.407011,way,347638177,https://www.openstreetmap.org/way/347638177
osm-way-23412420,Oybaum Ostsee,Gewässer: pond,Niederrhein/Düsseldorf,C,51,51.731569,6.337469,way,23412420,https://www.openstreetmap.org/way/23412420
osm-way-23448875,Pappelsee,Gewässer: pond,Niederrhein/Düsseldorf,C,51,51.497673,6.539805,way,23448875,https://www.openstreetmap.org/way/23448875
osm-way-356677946,Pastors Weiher,Gewässer: pond,Niederrhein/Düsseldorf,C,51,51.291416,6.162939,way,356677946,https://www.openstreetmap.org/way/356677946
osm-way-356677940,Pastors Weiher,Gewässer: pond,Niederrhein/Düsseldorf,C,51,51.294361,6.163256,way,356677940,https://www.openstreetmap.org/way/356677940
osm-way-23795650,Pastorskuhlen,Gewässer: pond,Niederrhein/Düsseldorf,C,51,51.46968,6.474543,way,23795650,https://www.openstreetmap.org/way/23795650
osm-way-25679197,Pavelweiher,Gewässer: pond,Niederrhein/Düsseldorf,C,51,51.31956,6.492409,way,25679197,https://www.openstreetmap.org/way/25679197
osm-way-202980159,Peelloch,Gewässer: pond,Niederrhein/Düsseldorf,C,51,51.280379,6.408247,way,202980159,https://www.openstreetmap.org/way/202980159
osm-way-154993764,Peerdekolk,Gewässer: pond,Niederrhein/Düsseldorf,C,51,52.02774,6.833662,way,154993764,https://www.openstreetmap.org/way/154993764
osm-way-29248799,Reflexionsteich,Gewässer: pond,Niederrhein/Düsseldorf,C,51,51.235803,6.709573,way,29248799,https://www.openstreetmap.org/way/29248799
osm-relation-16686848,Sandgrube Steinbergen,Gewässer: pond,Niederrhein/Düsseldorf,C,51,51.652454,6.246652,relation,16686848,https://www.openstreetmap.org/relation/16686848
osm-relation-3473271,Schlossgraben,Gewässer: pond,Niederrhein/Düsseldorf,C,51,51.342484,6.770452,relation,3473271,https://www.openstreetmap.org/relation/3473271
osm-relation-119392,Schlossweiher,Gewässer: pond,Niederrhein/Düsseldorf,C,51,51.162406,6.870503,relation,119392,https://www.openstreetmap.org/relation/119392
osm-way-954958862,Schulteich,Gewässer: pond,Niederrhein/Düsseldorf,C,51,51.423022,6.899447,way,954958862,https://www.openstreetmap.org/way/954958862
osm-way-432805967,Schönungsteich 1,Gewässer: pond,Niederrhein/Düsseldorf,C,51,51.40805,6.324457,way,432805967,https://www.openstreetmap.org/way/432805967
osm-way-432805966,Schönungsteich 2,Gewässer: pond,Niederrhein/Düsseldorf,C,51,51.408187,6.323595,way,432805966,https://www.openstreetmap.org/way/432805966
osm-relation-1965895,Spee's Graben,Gewässer: pond,Niederrhein/Düsseldorf,C,51,51.220721,6.770198,relation,1965895,https://www.openstreetmap.org/relation/1965895
osm-way-24533847,Springer-Teich,Gewässer: pond,Niederrhein/Düsseldorf,C,51,51.378004,6.942184,way,24533847,https://www.openstreetmap.org/way/24533847
osm-relation-2321253,Stadtgartenweiher,Gewässer: pond,Niederrhein/Düsseldorf,C,51,51.193622,6.684546,relation,2321253,https://www.openstreetmap.org/relation/2321253
osm-way-23984672,Stammenkuhle,Gewässer: pond,Niederrhein/Düsseldorf,C,51,51.478813,6.480767,way,23984672,https://www.openstreetmap.org/way/23984672
osm-way-59053104,Stromberg,Gewässer: pond,Niederrhein/Düsseldorf,C,51,51.839283,6.454764,way,59053104,https://www.openstreetmap.org/way/59053104
osm-way-23208177,Teich am Oeconomicum,Gewässer: pond,Niederrhein/Düsseldorf,C,51,51.188318,6.793481,way,23208177,https://www.openstreetmap.org/way/23208177
osm-way-23980279,Trompetenweiher,Gewässer: pond,Niederrhein/Düsseldorf,C,51,51.157872,6.869095,way,23980279,https://www.openstreetmap.org/way/23980279
osm-way-37729240,Verberger Kull,Gewässer: pond,Niederrhein/Düsseldorf,C,51,51.365524,6.572961,way,37729240,https://www.openstreetmap.org/way/37729240
osm-way-23979710,Viereckweiher,Gewässer: pond,Niederrhein/Düsseldorf,C,51,51.157864,6.861292,way,23979710,https://www.openstreetmap.org/way/23979710
osm-way-23696842,Vogelschutzweiher,Gewässer: pond,Niederrhein/Düsseldorf,C,51,51.193036,6.846891,way,23696842,https://www.openstreetmap.org/way/23696842
osm-way-1214506289,Weiher,Gewässer: pond,Niederrhein/Düsseldorf,C,51,51.507644,6.457981,way,1214506289,https://www.openstreetmap.org/way/1214506289
osm-way-41173123,Wolters Fischteiche,Gewässer: pond,Niederrhein/Düsseldorf,C,51,51.863164,6.898769,way,41173123,https://www.openstreetmap.org/way/41173123
osm-relation-2117872,Zooteich,Gewässer: pond,Niederrhein/Düsseldorf,C,51,51.241818,6.804754,relation,2117872,https://www.openstreetmap.org/relation/2117872
osm-way-21567164,Zoppenbroicher Parkweiher,Gewässer: pond,Niederrhein/Düsseldorf,C,51,51.166554,6.467077,way,21567164,https://www.openstreetmap.org/way/21567164
osm-way-21567038,Zoppenbroicher Parkweiher,Gewässer: pond,Niederrhein/Düsseldorf,C,51,51.16682,6.468123,way,21567038,https://www.openstreetmap.org/way/21567038
osm-way-1474546475,geiler Teich,Gewässer: pond,Niederrhein/Düsseldorf,C,51,51.209796,6.818528,way,1474546475,https://www.openstreetmap.org/way/1474546475
osm-way-109900568,Übungsteich Feuerwache 2,Gewässer: pond,Niederrhein/Düsseldorf,C,51,51.339161,6.652518,way,109900568,https://www.openstreetmap.org/way/109900568
osm-node-7691793669,"ASV ""Petri Heil""e.V. Goch",Angel-/Fishing-POI,Niederrhein/Düsseldorf,C,49,51.648879,6.173799,node,7691793669,https://www.openstreetmap.org/node/7691793669
osm-way-445778503,Bislicher Meer,Gewässer: oxbow,Niederrhein/Düsseldorf,C,49,51.721824,6.505805,way,445778503,https://www.openstreetmap.org/way/445778503
osm-node-9710085721,Josef Büning,Fishing-Shop/POI (kein Gewässer),Niederrhein/Düsseldorf,C,49,51.916018,6.830656,node,9710085721,https://www.openstreetmap.org/node/9710085721
osm-way-1350878768,Brunnen Alter Markt,Gewässer: basin,Niederrhein/Düsseldorf,C,47,51.194413,6.431737,way,1350878768,https://www.openstreetmap.org/way/1350878768
osm-way-942861172,Regenrückhaltebecken Im Grund,Gewässer: basin,Niederrhein/Düsseldorf,C,47,51.1517,6.409348,way,942861172,https://www.openstreetmap.org/way/942861172
osm-way-1003989837,Regenrückhaltebecken Kabelstraße,Gewässer: basin,Niederrhein/Düsseldorf,C,47,51.181574,6.423494,way,1003989837,https://www.openstreetmap.org/way/1003989837
osm-way-1036672891,Schwimmbecken,Gewässer: basin,Niederrhein/Düsseldorf,C,47,51.875608,6.705301,way,1036672891,https://www.openstreetmap.org/way/1036672891
osm-way-1441833903,Sickerbecken Gerkerath,Gewässer: basin,Niederrhein/Düsseldorf,C,47,51.167911,6.358208,way,1441833903,https://www.openstreetmap.org/way/1441833903
osm-node-1938182683,Anglerplatz Rheinhausen,Fishing-Shop/POI (kein Gewässer),Niederrhein/Düsseldorf,C,45,51.408541,6.715345,node,1938182683,https://www.openstreetmap.org/node/1938182683
osm-node-12443570301,Deutsche See,Fishing-Shop/POI (kein Gewässer),Niederrhein/Düsseldorf,C,45,51.443078,6.767051,node,12443570301,https://www.openstreetmap.org/node/12443570301
osm-node-9048306917,node/9048306917,Angel-/Fishing-POI,Niederrhein/Düsseldorf,C,45,51.249832,6.936648,node,9048306917,https://www.openstreetmap.org/node/9048306917
osm-way-461227502,way/461227502,Angel-/Fishing-POI,Niederrhein/Düsseldorf,C,45,51.751271,6.714208,way,461227502,https://www.openstreetmap.org/way/461227502
osm-way-318265140,Alter Treidelhafen,Gewässer: oxbow,Niederrhein/Düsseldorf,C,43,51.648785,6.753562,way,318265140,https://www.openstreetmap.org/way/318265140
osm-way-103797720,Baggersee,Gewässer: basin,Niederrhein/Düsseldorf,C,43,51.292271,6.612447,way,103797720,https://www.openstreetmap.org/way/103797720
osm-way-103797721,Baggersee,Gewässer: basin,Niederrhein/Düsseldorf,C,43,51.289621,6.615308,way,103797721,https://www.openstreetmap.org/way/103797721
osm-way-227408159,Belebungsbecken,Gewässer: basin,Niederrhein/Düsseldorf,C,43,51.691631,6.150003,way,227408159,https://www.openstreetmap.org/way/227408159
osm-way-171708261,Belebungsbecken,Gewässer: basin,Niederrhein/Düsseldorf,C,43,51.8514,6.832578,way,171708261,https://www.openstreetmap.org/way/171708261
osm-way-171708262,Belebungsbecken,Gewässer: basin,Niederrhein/Düsseldorf,C,43,51.85122,6.832137,way,171708262,https://www.openstreetmap.org/way/171708262
osm-way-227408160,Biol. Zentratbehandlung,Gewässer: basin,Niederrhein/Düsseldorf,C,43,51.690073,6.150192,way,227408160,https://www.openstreetmap.org/way/227408160
osm-way-69368092,Ehrenhof-Brunnen,Gewässer: basin,Niederrhein/Düsseldorf,C,43,51.23499,6.772528,way,69368092,https://www.openstreetmap.org/way/69368092
osm-way-455766138,Flutmulde Rees,Gewässer: basin,Niederrhein/Düsseldorf,C,43,51.747712,6.401988,way,455766138,https://www.openstreetmap.org/way/455766138
osm-way-159525295,Große Kammer,Gewässer: basin,Niederrhein/Düsseldorf,C,43,51.648317,6.775494,way,159525295,https://www.openstreetmap.org/way/159525295
osm-relation-18727371,Historischer Brunnen,Gewässer: basin,Niederrhein/Düsseldorf,C,43,51.206919,6.432757,relation,18727371,https://www.openstreetmap.org/relation/18727371
osm-way-969139515,Hochwasserentlastung Rotbachsee-Talsperre,Gewässer: basin,Niederrhein/Düsseldorf,C,43,51.568454,6.779621,way,969139515,https://www.openstreetmap.org/way/969139515
osm-way-159525092,Kleine Kammer,Gewässer: basin,Niederrhein/Düsseldorf,C,43,51.647627,6.774724,way,159525092,https://www.openstreetmap.org/way/159525092
osm-way-96843810,Kühlbecken,Gewässer: basin,Niederrhein/Düsseldorf,C,43,51.481305,6.783375,way,96843810,https://www.openstreetmap.org/way/96843810
osm-way-96843807,Kühlbecken 2,Gewässer: basin,Niederrhein/Düsseldorf,C,43,51.481743,6.783221,way,96843807,https://www.openstreetmap.org/way/96843807
osm-way-262115271,Löschwasserteich,Gewässer: basin,Niederrhein/Düsseldorf,C,43,51.909023,6.866905,way,262115271,https://www.openstreetmap.org/way/262115271
osm-way-743382667,Nachklärbecken,Gewässer: basin,Niederrhein/Düsseldorf,C,43,51.827124,6.685504,way,743382667,https://www.openstreetmap.org/way/743382667
osm-way-914794298,Niers-Altarm,Gewässer: oxbow,Niederrhein/Düsseldorf,C,43,51.44668,6.321934,way,914794298,https://www.openstreetmap.org/way/914794298
osm-way-294773122,RHB,Gewässer: basin,Niederrhein/Düsseldorf,C,43,51.776131,6.848705,way,294773122,https://www.openstreetmap.org/way/294773122
osm-way-512094892,RHB,Gewässer: basin,Niederrhein/Düsseldorf,C,43,51.821797,6.756724,way,512094892,https://www.openstreetmap.org/way/512094892
osm-way-1072101986,RHB,Gewässer: basin,Niederrhein/Düsseldorf,C,43,52.099945,6.855022,way,1072101986,https://www.openstreetmap.org/way/1072101986
osm-way-456923732,RHB,Gewässer: basin,Niederrhein/Düsseldorf,C,43,52.098451,6.85281,way,456923732,https://www.openstreetmap.org/way/456923732
osm-way-1071348262,RHB,Gewässer: basin,Niederrhein/Düsseldorf,C,43,52.103889,6.864522,way,1071348262,https://www.openstreetmap.org/way/1071348262
osm-way-1181334482,RRB / RBF Homberg Nord,Gewässer: basin,Niederrhein/Düsseldorf,C,43,51.302109,6.915248,way,1181334482,https://www.openstreetmap.org/way/1181334482
osm-way-807465956,RVS Jupiter,Gewässer: basin,Niederrhein/Düsseldorf,C,43,51.258082,6.54084,way,807465956,https://www.openstreetmap.org/way/807465956
osm-way-488898659,Regenbecken,Gewässer: basin,Niederrhein/Düsseldorf,C,43,51.327641,6.281074,way,488898659,https://www.openstreetmap.org/way/488898659
osm-way-432791910,Regenklärbecken,Gewässer: basin,Niederrhein/Düsseldorf,C,43,51.407037,6.325116,way,432791910,https://www.openstreetmap.org/way/432791910
osm-way-1499768011,Regenrückhaltebecken,Gewässer: basin,Niederrhein/Düsseldorf,C,43,51.315886,6.619941,way,1499768011,https://www.openstreetmap.org/way/1499768011
osm-way-1475454043,Regenrückhaltebecken,Gewässer: basin,Niederrhein/Düsseldorf,C,43,51.858311,6.863972,way,1475454043,https://www.openstreetmap.org/way/1475454043
osm-way-1188572779,Regenrückhaltebecken Eversael,Gewässer: basin,Niederrhein/Düsseldorf,C,43,51.548054,6.648506,way,1188572779,https://www.openstreetmap.org/way/1188572779
osm-way-223468983,Regenrückhaltebecken Hoverstraße,Gewässer: basin,Niederrhein/Düsseldorf,C,43,51.38389,6.245167,way,223468983,https://www.openstreetmap.org/way/223468983
osm-way-346282538,Regenrückhaltebecken Hoverstraße,Gewässer: basin,Niederrhein/Düsseldorf,C,43,51.384189,6.24545,way,346282538,https://www.openstreetmap.org/way/346282538
osm-way-843183253,Regenrückhaltebecken In der Flieth,Gewässer: basin,Niederrhein/Düsseldorf,C,43,51.265009,6.868836,way,843183253,https://www.openstreetmap.org/way/843183253
osm-way-204171155,Regenrückhaltebecken Ochsenpfuhl,Gewässer: basin,Niederrhein/Düsseldorf,C,43,51.32118,6.205758,way,204171155,https://www.openstreetmap.org/way/204171155
osm-way-189490306,Regenrückhaltebecken Poststraße,Gewässer: basin,Niederrhein/Düsseldorf,C,43,51.296031,6.860721,way,189490306,https://www.openstreetmap.org/way/189490306
osm-way-510836043,Regenrückhaltebecken Sengelsbach,Gewässer: basin,Niederrhein/Düsseldorf,C,43,51.314572,6.886759,way,510836043,https://www.openstreetmap.org/way/510836043
osm-way-938757502,Regenrückhaltebecken Siekenhofgraben (Kiebitzbrutgebiet),Gewässer: basin,Niederrhein/Düsseldorf,C,43,51.824906,6.59154,way,938757502,https://www.openstreetmap.org/way/938757502
osm-way-1220977602,Regenrückhaltebecken Voosen,Gewässer: basin,Niederrhein/Düsseldorf,C,43,51.15094,6.378338,way,1220977602,https://www.openstreetmap.org/way/1220977602
osm-way-227408182,Regenspeicher,Gewässer: basin,Niederrhein/Düsseldorf,C,43,51.690166,6.150176,way,227408182,https://www.openstreetmap.org/way/227408182
osm-way-166804648,Regenwasserrückhaltebecken,Gewässer: basin,Niederrhein/Düsseldorf,C,43,51.286273,6.580277,way,166804648,https://www.openstreetmap.org/way/166804648
osm-way-92237952,Regenwasserrückhaltebecken,Gewässer: basin,Niederrhein/Düsseldorf,C,43,51.323497,6.632647,way,92237952,https://www.openstreetmap.org/way/92237952
osm-way-615968877,Regenwasserrückhaltebecken Siekenhofgraben,Gewässer: basin,Niederrhein/Düsseldorf,C,43,51.828184,6.59677,way,615968877,https://www.openstreetmap.org/way/615968877
osm-way-50288396,Regenwassersickerbecken,Gewässer: basin,Niederrhein/Düsseldorf,C,43,51.27354,6.547635,way,50288396,https://www.openstreetmap.org/way/50288396
osm-way-146511481,Regenwasserspeicherbecken,Gewässer: basin,Niederrhein/Düsseldorf,C,43,51.278349,6.44377,way,146511481,https://www.openstreetmap.org/way/146511481
osm-way-223535963,Regenüberlaufbecken,Gewässer: basin,Niederrhein/Düsseldorf,C,43,51.391045,6.240464,way,223535963,https://www.openstreetmap.org/way/223535963
osm-way-223535967,Regenüberlaufbecken,Gewässer: basin,Niederrhein/Düsseldorf,C,43,51.391221,6.240876,way,223535967,https://www.openstreetmap.org/way/223535967
osm-way-141433775,Regenüberlaufbecken,Gewässer: basin,Niederrhein/Düsseldorf,C,43,51.355154,6.394412,way,141433775,https://www.openstreetmap.org/way/141433775
osm-way-194280742,Regenüberlaufbecken,Gewässer: basin,Niederrhein/Düsseldorf,C,43,51.378663,6.422938,way,194280742,https://www.openstreetmap.org/way/194280742
osm-way-377152284,Regenüberlaufbecken,Gewässer: basin,Niederrhein/Düsseldorf,C,43,51.382208,6.438546,way,377152284,https://www.openstreetmap.org/way/377152284
osm-way-1091154984,Rosenbrunnen,Gewässer: basin,Niederrhein/Düsseldorf,C,43,51.205034,6.445847,way,1091154984,https://www.openstreetmap.org/way/1091154984
osm-way-1358885466,Rückhaltebecken,Gewässer: basin,Niederrhein/Düsseldorf,C,43,51.646654,6.630784,way,1358885466,https://www.openstreetmap.org/way/1358885466
osm-way-509483888,Rückhaltebecken,Gewässer: basin,Niederrhein/Düsseldorf,C,43,51.852759,6.838665,way,509483888,https://www.openstreetmap.org/way/509483888
osm-way-123482435,SAL Ratingen Ost,Gewässer: basin,Niederrhein/Düsseldorf,C,43,51.299544,6.89707,way,123482435,https://www.openstreetmap.org/way/123482435
osm-way-146723698,Sandfang,Gewässer: basin,Niederrhein/Düsseldorf,C,43,51.376843,6.333814,way,146723698,https://www.openstreetmap.org/way/146723698
osm-way-432791911,Sandfang,Gewässer: basin,Niederrhein/Düsseldorf,C,43,51.406377,6.325064,way,432791911,https://www.openstreetmap.org/way/432791911
osm-way-227408184,Sandfang,Gewässer: basin,Niederrhein/Düsseldorf,C,43,51.68992,6.151197,way,227408184,https://www.openstreetmap.org/way/227408184
osm-way-155850483,Schleuse Duisburg Meiderich,Gewässer: basin,Niederrhein/Düsseldorf,C,43,51.451063,6.775604,way,155850483,https://www.openstreetmap.org/way/155850483
osm-way-227393699,Schönungsteich,Gewässer: basin,Niederrhein/Düsseldorf,C,43,51.257512,6.288616,way,227393699,https://www.openstreetmap.org/way/227393699
osm-way-895302252,Sickerbecken Gerkerathwinkel West,Gewässer: basin,Niederrhein/Düsseldorf,C,43,51.171538,6.346011,way,895302252,https://www.openstreetmap.org/way/895302252
osm-way-1224053999,Sickerbecken Rasseln,Gewässer: basin,Niederrhein/Düsseldorf,C,43,51.210832,6.360776,way,1224053999,https://www.openstreetmap.org/way/1224053999
osm-way-1361108763,Spinnerbrunnen,Gewässer: basin,Niederrhein/Düsseldorf,C,43,51.204595,6.343649,way,1361108763,https://www.openstreetmap.org/way/1361108763
osm-way-648682550,Talerbrunnen,Gewässer: basin,Niederrhein/Düsseldorf,C,43,51.167673,6.445887,way,648682550,https://www.openstreetmap.org/way/648682550
osm-way-227408191,Vorklärung,Gewässer: basin,Niederrhein/Düsseldorf,C,43,51.690142,6.150552,way,227408191,https://www.openstreetmap.org/way/227408191
osm-way-125809129,Zyklator,Gewässer: basin,Niederrhein/Düsseldorf,C,43,51.489506,6.728987,way,125809129,https://www.openstreetmap.org/way/125809129
osm-way-125809131,Zyklator,Gewässer: basin,Niederrhein/Düsseldorf,C,43,51.48939,6.729402,way,125809131,https://www.openstreetmap.org/way/125809131
osm-way-31020680,ehemaliges Absatzbecken,Gewässer: basin,Niederrhein/Düsseldorf,C,43,51.493124,6.909155,way,31020680,https://www.openstreetmap.org/way/31020680
osm-way-227416896,Eindicker,Gewässer: reservoir,Niederrhein/Düsseldorf,C,33,51.453317,6.281429,way,227416896,https://www.openstreetmap.org/way/227416896
osm-way-446164280,Klärbecken,Gewässer: reservoir,Niederrhein/Düsseldorf,C,33,51.712302,6.408027,way,446164280,https://www.openstreetmap.org/way/446164280
osm-way-1102664000,Klärbecken,Gewässer: reservoir,Niederrhein/Düsseldorf,C,33,51.758454,6.593216,way,1102664000,https://www.openstreetmap.org/way/1102664000
osm-way-320437002,Klärbecken,Gewässer: reservoir,Niederrhein/Düsseldorf,C,33,51.721825,6.68109,way,320437002,https://www.openstreetmap.org/way/320437002
osm-way-304359693,Klärbecken,Gewässer: reservoir,Niederrhein/Düsseldorf,C,33,51.766311,6.608325,way,304359693,https://www.openstreetmap.org/way/304359693
osm-way-304360043,Klärbecken,Gewässer: reservoir,Niederrhein/Düsseldorf,C,33,51.766195,6.608267,way,304360043,https://www.openstreetmap.org/way/304360043
osm-way-905586569,Klärbecken,Gewässer: reservoir,Niederrhein/Düsseldorf,C,33,51.661776,6.911238,way,905586569,https://www.openstreetmap.org/way/905586569
osm-way-398227569,Klärbecken,Gewässer: reservoir,Niederrhein/Düsseldorf,C,33,51.726582,6.72659,way,398227569,https://www.openstreetmap.org/way/398227569
osm-way-895979559,Klärbecken,Gewässer: reservoir,Niederrhein/Düsseldorf,C,33,51.726458,6.725769,way,895979559,https://www.openstreetmap.org/way/895979559
osm-way-1030353611,Klärbecken,Gewässer: reservoir,Niederrhein/Düsseldorf,C,33,51.750643,6.795089,way,1030353611,https://www.openstreetmap.org/way/1030353611
osm-way-1030353613,Klärbecken,Gewässer: reservoir,Niederrhein/Düsseldorf,C,33,51.750525,6.794639,way,1030353613,https://www.openstreetmap.org/way/1030353613
osm-way-1030353614,Klärbecken,Gewässer: reservoir,Niederrhein/Düsseldorf,C,33,51.750113,6.79446,way,1030353614,https://www.openstreetmap.org/way/1030353614
osm-way-1030353615,Klärbecken,Gewässer: reservoir,Niederrhein/Düsseldorf,C,33,51.749987,6.794544,way,1030353615,https://www.openstreetmap.org/way/1030353615
osm-way-1030353616,Klärbecken,Gewässer: reservoir,Niederrhein/Düsseldorf,C,33,51.749842,6.794641,way,1030353616,https://www.openstreetmap.org/way/1030353616
osm-way-1030353617,Klärbecken,Gewässer: reservoir,Niederrhein/Düsseldorf,C,33,51.749691,6.794743,way,1030353617,https://www.openstreetmap.org/way/1030353617
osm-way-1030353610,Klärbecken,Gewässer: reservoir,Niederrhein/Düsseldorf,C,33,51.750756,6.795531,way,1030353610,https://www.openstreetmap.org/way/1030353610
osm-way-1046958158,Klärbecken,Gewässer: reservoir,Niederrhein/Düsseldorf,C,33,51.866731,6.731739,way,1046958158,https://www.openstreetmap.org/way/1046958158
osm-way-996457453,Klärbecken,Gewässer: reservoir,Niederrhein/Düsseldorf,C,33,51.933943,6.847438,way,996457453,https://www.openstreetmap.org/way/996457453
osm-way-996457454,Klärbecken,Gewässer: reservoir,Niederrhein/Düsseldorf,C,33,51.934031,6.846728,way,996457454,https://www.openstreetmap.org/way/996457454
